Time,MagX,MagY,MagZ,GyroX,GyroY,GyroZ,Tri11,Tri12,Tri13,Tri21,Tri22,Tri23,Lat,Lon,Alt,SunVect,MagVect,MagRef,SunRef,Roll,Pitch,Yaw,static_q,dynamic_q
1717188576.714442,-1.8533333333333335,-2.2133333333333334,37.92,-1.6463414634146343,0.12195121951219513,0.48780487804878053,0.017595307917888565,0.017595307917888565,0.020527859237536656,0.02346041055718475,0.011730205278592375,0.017595307917888565,42.3,-83.7,0.3,[0 0 1],[-0.04873381 -0.05820009 -0.99711472],0,0,0.0,0.0,-0.0,[0 0 0 1],[-0.00973386 -0.00233894 -0.03633139  0.99928965]
1717188576.7433894,-1.8933333333333335,-2.146666666666667,37.906666666666666,-2.3170731707317076,0.3658536585365854,0.7317073170731708,0.017595307917888565,0.017595307917888565,0.020527859237536656,0.02346041055718475,0.011730205278592375,0.017595307917888565,42.3,-83.7,0.3,[0 0 1],[-0.04980545 -0.05646956 -0.99716127],0,0,0.0,0.0,-0.0,[0 0 0 1],[-0.01461499 -0.00709968 -0.04754219  0.99873707]
1717188576.7662704,-1.8666666666666667,-2.1733333333333333,37.906666666666666,-1.4634146341463417,-0.06097560975609757,0.48780487804878053,0.017595307917888565,0.017595307917888565,0.020527859237536656,0.02346041055718475,0.011730205278592375,0.017595307917888565,42.3,-83.7,0.3,[0 0 1],[-0.04910371 -0.05717075 -0.99715612],0,0,0.0,0.0,-0.0,[0 0 0 1],[-1.15050940e-02  9.15287776e-05 -3.42148814e-02  9.99348271e-01]
1717188576.7932878,-1.8800000000000001,-2.16,37.906666666666666,-1.707317073170732,0.0,0.426829268292683,0.017595307917888565,0.017595307917888565,0.020527859237536656,0.02346041055718475,0.011730205278592375,0.017595307917888565,42.3,-83.7,0.3,[0 0 1],[-0.04945459 -0.05682016 -0.99715882],0,0,0.0,0.0,-0.0,[0 0 0 1],[-9.61396145e-03  1.07268923e-04 -3.67826330e-02  9.99277038e-01]
1717188576.8204029,-1.8933333333333335,-2.1333333333333333,37.89333333333334,-1.4634146341463417,-0.3658536585365854,0.1829268292682927,0.017595307917888565,0.01466275659824047,0.020527859237536656,0.02346041055718475,0.011730205278592375,0.017595307917888565,42.3,-83.7,0.3,[0 0 1],[-0.04982386 -0.05613956 -0.99717899],0,0,0.0,0.0,-0.0,[0 0 0 1],[-0.00506667  0.00702597 -0.03270575  0.99942749]
1717188576.8473003,-1.7066666666666668,-2.1733333333333333,37.906666666666666,-2.0121951219512195,0.426829268292683,0.7317073170731708,0.017595307917888565,0.017595307917888565,0.020527859237536656,0.02346041055718475,0.011730205278592375,0.017595307917888565,42.3,-83.7,0.3,[0 0 1],[-0.04490371 -0.05718206 -0.99735343],0,0,0.0,0.0,-0.0,[0 0 0 1],[-0.01370727 -0.00714396 -0.04190662  0.99900196]
1717188576.8743258,-1.8800000000000001,-2.1333333333333333,37.906666666666666,-1.4634146341463417,-0.12195121951219513,0.06097560975609757,0.017595307917888565,0.01466275659824047,0.020527859237536656,0.02346041055718475,0.011730205278592375,0.017595307917888565,42.3,-83.7,0.3,[0 0 1],[-0.04945655 -0.0561209  -0.99719832],0,0,0.0,0.0,-0.0,[0 0 0 1],[-0.00340989  0.00159548 -0.0335003   0.99943162]
1717188576.9013324,-1.8933333333333335,-2.146666666666667,37.906666666666666,-1.707317073170732,-0.3658536585365854,0.3658536585365854,0.017595307917888565,0.01466275659824047,0.020527859237536656,0.02346041055718475,0.011730205278592375,0.017595307917888565,42.3,-83.7,0.3,[0 0 1],[-0.04980545 -0.05646956 -0.99716127],0,0,0.0,0.0,-0.0,[0 0 0 1],[-0.00749545  0.00693828 -0.03664482  0.99927616]
1717188576.928469,-1.8666666666666667,-2.16,37.906666666666666,-1.2804878048780488,-0.24390243902439027,0.12195121951219513,0.017595307917888565,0.017595307917888565,0.020527859237536656,0.02346041055718475,0.01466275659824047,0.017595307917888565,42.3,-83.7,0.3,[0 0 1],[-0.04910469 -0.05682115 -0.99717606],0,0,0.0,0.0,-0.0,[0 0 0 1],[-0.00338232  0.00569836 -0.02942107  0.99954514]
1717188576.9554691,-1.9066666666666667,-2.16,37.906666666666666,-1.8902439024390245,0.30487804878048785,0.7317073170731708,0.017595307917888565,0.017595307917888565,0.020527859237536656,0.02346041055718475,0.011730205278592375,0.017595307917888565,42.3,-83.7,0.3,[0 0 1],[-0.05015432 -0.05681818 -0.99712398],0,0,0.0,0.0,-0.0,[0 0 0 1],[-0.01367717 -0.00512525 -0.03930478  0.99912051]
1717188576.9824345,-1.8666666666666667,-2.16,37.89333333333334,-1.5853658536585367,0.24390243902439027,0.24390243902439027,0.017595307917888565,0.017595307917888565,0.020527859237536656,0.02346041055718475,0.011730205278592375,0.017595307917888565,42.3,-83.7,0.3,[0 0 1],[-0.04912188 -0.05684103 -0.99717408],0,0,0.0,0.0,-0.0,[0 0 0 1],[-0.00650338 -0.00507862 -0.03538341  0.99933975]
1717188577.009453,-1.8933333333333335,-2.1733333333333333,37.92,-1.3414634146341464,-0.12195121951219513,0.1829268292682927,0.017595307917888565,0.01466275659824047,0.020527859237536656,0.02346041055718475,0.011730205278592375,0.017595307917888565,42.3,-83.7,0.3,[0 0 1],[-0.04978606 -0.05714878 -0.99712355],0,0,0.0,0.0,-0.0,[0 0 0 1],[-0.0045942   0.00160932 -0.03034648  0.99952759]
1717188577.0368848,-1.9066666666666667,-2.1733333333333333,37.92,-2.25609756097561,0.06097560975609757,0.5487804878048781,0.017595307917888565,0.017595307917888565,0.020527859237536656,0.02346041055718475,0.011730205278592375,0.017595307917888565,42.3,-83.7,0.3,[0 0 1],[-0.05013578 -0.05714778 -0.99710608],0,0,0.0,0.0,-0.0,[0 0 0 1],[-0.01063575 -0.00101079 -0.04577083  0.99889483]
1717188577.0634785,-1.84,-2.186666666666667,37.906666666666666,-1.5853658536585367,0.0,0.426829268292683,0.017595307917888565,0.01466275659824047,0.020527859237536656,0.02346041055718475,0.01466275659824047,0.017595307917888565,42.3,-83.7,0.3,[0 0 1],[-0.04840291 -0.0575223  -0.99717017],0,0,0.0,0.0,-0.0,[0 0 0 1],[-9.54919992e-03 -1.94942595e-04 -3.62463424e-02  9.99297242e-01]
1717188577.090554,-1.8933333333333335,-2.146666666666667,37.92,-1.707317073170732,-0.30487804878048785,0.12195121951219513,0.017595307917888565,0.017595307917888565,0.020527859237536656,0.02346041055718475,0.011730205278592375,0.017595307917888565,42.3,-83.7,0.3,[0 0 1],[-0.04978804 -0.05644982 -0.99716326],0,0,0.0,0.0,-0.0,[0 0 0 1],[-0.00385654  0.00589298 -0.03703519  0.99928914]
1717188577.1175897,-1.8666666666666667,-2.2,37.89333333333334,-1.707317073170732,0.1829268292682927,0.426829268292683,0.017595307917888565,0.01466275659824047,0.020527859237536656,0.02346041055718475,0.011730205278592375,0.017595307917888565,42.3,-83.7,0.3,[0 0 1],[-0.04911891 -0.05789014 -0.99711387],0,0,0.0,0.0,-0.0,[0 0 0 1],[-0.00820774 -0.00274768 -0.03723456  0.99926907]
1717188577.1446016,-1.8666666666666667,-2.1333333333333333,37.92,-2.3170731707317076,0.1829268292682927,0.853658536585366,0.017595307917888565,0.017595307917888565,0.020527859237536656,0.02346041055718475,0.011730205278592375,0.017595307917888565,42.3,-83.7,0.3,[0 0 1],[-0.04908947 -0.05610225 -0.99721751],0,0,0.0,0.0,-0.0,[0 0 0 1],[-0.01675985 -0.00396523 -0.04758942  0.99871849]
1717188577.1724153,-1.8933333333333335,-2.186666666666667,37.89333333333334,-0.853658536585366,-0.48780487804878053,0.0,0.017595307917888565,0.017595307917888565,0.020527859237536656,0.02346041055718475,0.011730205278592375,0.017595307917888565,42.3,-83.7,0.3,[0 0 1],[-0.04981989 -0.05753846 -0.99709945],0,0,0.0,0.0,-0.0,[0 0 0 1],[-0.00293447  0.0089435  -0.02292552  0.99969286]
1717188577.1985445,-1.8666666666666667,-2.186666666666667,37.89333333333334,-1.4634146341463417,-0.1829268292682927,-0.1829268292682927,0.017595307917888565,0.01466275659824047,0.020527859237536656,0.02346041055718475,0.011730205278592375,0.017595307917888565,42.3,-83.7,0.3,[0 0 1],[-0.0491199  -0.05754046 -0.99713406],0,0,0.0,0.0,-0.0,[0 0 0 1],[ 0.00318467  0.00488303 -0.0307629   0.99950971]
1717188577.2256484,-1.8933333333333335,-2.1333333333333333,37.88,-2.0121951219512195,0.0,0.5487804878048781,0.017595307917888565,0.01466275659824047,0.020527859237536656,0.02346041055718475,0.011730205278592375,0.017595307917888565,42.3,-83.7,0.3,[0 0 1],[-0.0498413  -0.05615921 -0.99717701],0,0,0.0,0.0,-0.0,[0 0 0 1],[-9.53010048e-03  2.59485010e-04 -4.16666318e-02  9.99086083e-01]
1717188577.2576292,-1.8800000000000001,-2.2,37.92,-1.829268292682927,0.48780487804878053,0.3658536585365854,0.017595307917888565,0.01466275659824047,0.020527859237536656,0.02346041055718475,0.011730205278592375,0.017595307917888565,42.3,-83.7,0.3,[0 0 1],[-0.04943432 -0.05784867 -0.99710069],0,0,0.0,0.0,-0.0,[0 0 0 1],[-0.00777294 -0.00899574 -0.04003834  0.99912741]
1717188577.2799127,-1.8533333333333335,-2.186666666666667,37.906666666666666,-1.402439024390244,-0.12195121951219513,0.3658536585365854,0.017595307917888565,0.01466275659824047,0.020527859237536656,0.02346041055718475,0.01466275659824047,0.017595307917888565,42.3,-83.7,0.3,[0 0 1],[-0.04875283 -0.05752132 -0.99715318],0,0,0.0,0.0,-0.0,[0 0 0 1],[-8.32864883e-03  9.29829794e-04 -3.20565532e-02  9.99450922e-01]
1717188577.3073494,-1.8800000000000001,-2.12,37.93333333333334,-1.707317073170732,0.0,0.6707317073170732,0.017595307917888565,0.017595307917888565,0.020527859237536656,0.02346041055718475,0.011730205278592375,0.017595307917888565,42.3,-83.7,0.3,[0 0 1],[-0.04942294 -0.05573225 -0.99722179],0,0,0.0,0.0,-0.0,[0 0 0 1],[-1.36646423e-02 -3.35668109e-06 -3.64168116e-02  9.99243260e-01]
1717188577.3340302,-1.8133333333333335,-2.226666666666667,37.906666666666666,-1.6463414634146343,-0.06097560975609757,0.48780487804878053,0.017595307917888565,0.01466275659824047,0.020527859237536656,0.02346041055718475,0.011730205278592375,0.017595307917888565,42.3,-83.7,0.3,[0 0 1],[-0.04770012 -0.05857294 -0.99714287],0,0,0.0,0.0,-0.0,[0 0 0 1],[-0.01111732  0.00122839 -0.03597799  0.99928999]
1717188577.3624587,-1.8800000000000001,-2.2,37.93333333333334,-1.829268292682927,0.0,0.24390243902439027,0.017595307917888565,0.017595307917888565,0.020527859237536656,0.02346041055718475,0.01466275659824047,0.017595307917888565,42.3,-83.7,0.3,[0 0 1],[-0.04941704 -0.05782845 -0.99710272],0,0,0.0,0.0,-0.0,[0 0 0 1],[-6.08888143e-03  3.90702729e-04 -3.92326636e-02  9.99211475e-01]
1717188577.3877892,-1.8933333333333335,-2.146666666666667,37.89333333333334,-1.5853658536585367,-0.06097560975609757,0.6097560975609757,0.017595307917888565,0.017595307917888565,0.020527859237536656,0.02346041055718475,0.011730205278592375,0.017595307917888565,42.3,-83.7,0.3,[0 0 1],[-0.04982288 -0.05648932 -0.99715928],0,0,0.0,0.0,-0.0,[0 0 0 1],[-1.23116798e-02  9.29477183e-04 -3.52681126e-02  9.99301616e-01]
1717188577.4148278,-1.8800000000000001,-2.186666666666667,37.93333333333334,-1.7682926829268295,0.1829268292682927,0.426829268292683,0.017595307917888565,0.01466275659824047,0.020527859237536656,0.02346041055718475,0.011730205278592375,0.017595307917888565,42.3,-83.7,0.3,[0 0 1],[-0.04941804 -0.05747914 -0.99712286],0,0,0.0,0.0,-0.0,[0 0 0 1],[-0.00956427 -0.00315374 -0.03805545  0.99922488]
1717188577.4419284,-1.8933333333333335,-2.16,37.92,-1.7682926829268295,-0.1829268292682927,0.24390243902439027,0.017595307917888565,0.017595307917888565,0.020527859237536656,0.02346041055718475,0.011730205278592375,0.017595307917888565,42.3,-83.7,0.3,[0 0 1],[-0.04978705 -0.05679931 -0.99714346],0,0,0.0,0.0,-0.0,[0 0 0 1],[-0.00615137  0.00310702 -0.03838871  0.99923912]
1717188577.4689245,-1.84,-2.1733333333333333,37.92,-1.402439024390244,-0.1829268292682927,0.3658536585365854,0.017595307917888565,0.017595307917888565,0.020527859237536656,0.02346041055718475,0.011730205278592375,0.017595307917888565,42.3,-83.7,0.3,[0 0 1],[-0.04838696 -0.05715272 -0.99719219],0,0,0.0,0.0,-0.0,[0 0 0 1],[-0.00781568  0.00378529 -0.03189694  0.99945344]
1717188577.4961722,-1.8666666666666667,-2.2,37.906666666666666,-1.7682926829268295,-0.24390243902439027,0.426829268292683,0.017595307917888565,0.01466275659824047,0.020527859237536656,0.02346041055718475,0.011730205278592375,0.017595307917888565,42.3,-83.7,0.3,[0 0 1],[-0.04910173 -0.0578699  -0.99711589],0,0,0.0,0.0,-0.0,[0 0 0 1],[-0.00909311  0.0050913  -0.03751333  0.99924178]
1717188577.523038,-1.8800000000000001,-2.1733333333333333,37.906666666666666,-1.5853658536585367,-0.12195121951219513,0.30487804878048785,0.017595307917888565,0.01466275659824047,0.020527859237536656,0.02346041055718475,0.01466275659824047,0.017595307917888565,42.3,-83.7,0.3,[0 0 1],[-0.0494536  -0.05716976 -0.99713889],0,0,0.0,0.0,-0.0,[0 0 0 1],[-0.00695193  0.00307122 -0.03509956  0.99935492]
1717188577.5499527,-1.8666666666666667,-2.1733333333333333,37.93333333333334,-1.402439024390244,0.06097560975609757,0.30487804878048785,0.017595307917888565,0.01466275659824047,0.020527859237536656,0.02346041055718475,0.011730205278592375,0.017595307917888565,42.3,-83.7,0.3,[0 0 1],[-0.04906939 -0.05713079 -0.9971601 ],0,0,0.0,0.0,-0.0,[0 0 0 1],[-6.61576264e-03 -7.23669237e-04 -3.14654257e-02  9.99482684e-01]
1717188577.57694,-1.9066666666666667,-2.186666666666667,37.94666666666667,-1.707317073170732,-0.12195121951219513,0.24390243902439027,0.017595307917888565,0.017595307917888565,0.020527859237536656,0.02346041055718475,0.011730205278592375,0.017595307917888565,42.3,-83.7,0.3,[0 0 1],[-0.05009975 -0.05745706 -0.99709012],0,0,0.0,0.0,-0.0,[0 0 0 1],[-0.00560022  0.0022444  -0.036398    0.99931916]
1717188577.603964,-1.8800000000000001,-2.2,37.92,-1.4634146341463417,-0.06097560975609757,0.30487804878048785,0.017595307917888565,0.017595307917888565,0.020527859237536656,0.02346041055718475,0.011730205278592375,0.017595307917888565,42.3,-83.7,0.3,[0 0 1],[-0.04943432 -0.05784867 -0.99710069],0,0,0.0,0.0,-0.0,[0 0 0 1],[-0.00651468  0.00141389 -0.03274018  0.99944166]
1717188577.6310492,-1.8666666666666667,-2.1733333333333333,37.93333333333334,-0.24390243902439027,-0.6097560975609757,-0.48780487804878053,0.017595307917888565,0.017595307917888565,0.020527859237536656,0.02346041055718475,0.01466275659824047,0.017595307917888565,42.3,-83.7,0.3,[0 0 1],[-0.04906939 -0.05713079 -0.9971601 ],0,0,0.0,0.0,-0.0,[0 0 0 1],[ 0.00794922  0.0121242  -0.00929911  0.99985166]
1717188577.6580973,-1.9066666666666667,-2.186666666666667,37.906666666666666,0.0,-0.12195121951219513,-0.24390243902439027,0.017595307917888565,0.017595307917888565,0.020527859237536656,0.02346041055718475,0.011730205278592375,0.017595307917888565,42.3,-83.7,0.3,[0 0 1],[-0.05015231 -0.05751733 -0.997084  ],0,0,0.0,0.0,-0.0,[0 0 0 1],[ 0.00579371  0.00413942 -0.00131811  0.99997378]
1717188577.6871521,-1.84,-2.1733333333333333,37.94666666666667,-1.5853658536585367,1.2195121951219514,1.0975609756097562,0.017595307917888565,0.01466275659824047,0.020527859237536656,0.02346041055718475,0.011730205278592375,0.017595307917888565,42.3,-83.7,0.3,[0 0 1],[-0.04835315 -0.05711278 -0.99719612],0,0,0.0,0.0,-0.0,[0 0 0 1],[-0.01922654 -0.0220483  -0.02930344  0.99914239]
1717188577.7121637,-1.8933333333333335,-2.106666666666667,37.93333333333334,-1.0975609756097562,-0.06097560975609757,0.1829268292682927,0.017595307917888565,0.017595307917888565,0.020527859237536656,0.02346041055718475,0.01466275659824047,0.017595307917888565,42.3,-83.7,0.3,[0 0 1],[-0.04977356 -0.05538185 -0.99722387],0,0,0.0,0.0,-0.0,[0 0 0 1],[-0.00673491 -0.00173738 -0.02490959  0.99966551]
1717188577.7400541,-1.8666666666666667,-2.186666666666667,37.92,-1.5853658536585367,-0.24390243902439027,0.1829268292682927,0.017595307917888565,0.017595307917888565,0.020527859237536656,0.02346041055718475,0.011730205278592375,0.017595307917888565,42.3,-83.7,0.3,[0 0 1],[-0.04908556 -0.05750023 -0.99713807],0,0,0.0,0.0,-0.0,[0 0 0 1],[-0.00455946  0.00443825 -0.03325106  0.99942678]
1717188577.7725074,-1.8666666666666667,-2.1333333333333333,37.96,-1.9512195121951221,0.12195121951219513,0.6097560975609757,0.017595307917888565,0.01466275659824047,0.020527859237536656,0.02346041055718475,0.011730205278592375,0.017595307917888565,42.3,-83.7,0.3,[0 0 1],[-0.04903803 -0.05604346 -0.99722335],0,0,0.0,0.0,-0.0,[0 0 0 1],[-0.01171497 -0.00184322 -0.04094716  0.99909093]
1717188577.7933185,-1.8933333333333335,-2.2,37.906666666666666,-2.3170731707317076,0.6707317073170732,0.853658536585366,0.017595307917888565,0.01466275659824047,0.020527859237536656,0.02346041055718475,0.011730205278592375,0.017595307917888565,42.3,-83.7,0.3,[0 0 1],[-0.04980146 -0.05786789 -0.9970813 ],0,0,0.0,0.0,-0.0,[0 0 0 1],[-0.01678694 -0.01263836 -0.04810532  0.99862122]
1717188577.8237488,-1.8666666666666667,-2.146666666666667,37.92,-2.682926829268293,0.6097560975609757,1.5853658536585367,0.017595307917888565,0.017595307917888565,0.020527859237536656,0.02346041055718475,0.01466275659824047,0.017595307917888565,42.3,-83.7,0.3,[0 0 1],[-0.0490885  -0.05645178 -0.99719783],0,0,0.0,0.0,-0.0,[0 0 0 1],[-0.03064241 -0.01315487 -0.05422951  0.99797152]
1717188577.8508177,-1.8800000000000001,-1.9066666666666667,37.89333333333334,-1.402439024390244,-0.5487804878048781,0.1829268292682927,0.017595307917888565,0.017595307917888565,0.020527859237536656,0.02346041055718475,0.011730205278592375,0.017595307917888565,42.3,-83.7,0.3,[0 0 1],[-0.04948955 -0.05019153 -0.9975127 ],0,0,0.0,0.0,-0.0,[0 0 0 1],[-0.00874219  0.00903268 -0.03375278  0.99935116]
1717188577.8790145,-1.84,-2.2,37.89333333333334,-2.378048780487805,0.6097560975609757,1.0975609756097562,0.017595307917888565,0.01466275659824047,0.020527859237536656,0.02346041055718475,0.011730205278592375,0.017595307917888565,42.3,-83.7,0.3,[0 0 1],[-0.04841887 -0.05789212 -0.99714799],0,0,0.0,0.0,-0.0,[0 0 0 1],[-0.02038121 -0.01011516 -0.04814813  0.99858102]
1717188577.904482,-1.6266666666666667,-1.9866666666666668,37.906666666666666,-0.9756097560975611,-1.0365853658536586,-0.48780487804878053,0.017595307917888565,0.01466275659824047,0.020527859237536656,0.02346041055718475,0.011730205278592375,0.017595307917888565,42.3,-83.7,0.3,[0 0 1],[-0.04281431 -0.05228961 -0.99771375],0,0,0.0,0.0,-0.0,[0 0 0 1],[ 0.00510669  0.01882059 -0.02492126  0.99949919]
1717188577.9287536,-1.8533333333333335,-2.16,37.92,-1.3414634146341464,0.0,0.6707317073170732,0.017595307917888565,0.017595307917888565,0.020527859237536656,0.02346041055718475,0.011730205278592375,0.017595307917888565,42.3,-83.7,0.3,[0 0 1],[-0.04873774 -0.05680225 -0.99719513],0,0,0.0,0.0,-0.0,[0 0 0 1],[-0.01139459  0.00225921 -0.02902024  0.99951132]
1717188577.955937,-1.84,-2.2133333333333334,37.92,-1.6463414634146343,0.5487804878048781,0.6097560975609757,0.017595307917888565,0.01466275659824047,0.020527859237536656,0.02346041055718475,0.01466275659824047,0.017595307917888565,42.3,-83.7,0.3,[0 0 1],[-0.04838403 -0.05820108 -0.9971317 ],0,0,0.0,0.0,-0.0,[0 0 0 1],[-0.01262514 -0.00988969 -0.03497097  0.99925964]
1717188577.9824395,-1.8666666666666667,-2.146666666666667,37.92,-0.7317073170731708,-0.5487804878048781,-0.30487804878048785,0.017595307917888565,0.017595307917888565,0.020527859237536656,0.02346041055718475,0.011730205278592375,0.017595307917888565,42.3,-83.7,0.3,[0 0 1],[-0.0490885  -0.05645178 -0.99719783],0,0,0.0,0.0,-0.0,[0 0 0 1],[ 0.00345001  0.00935084 -0.01887006  0.99977226]
1717188578.0094237,-1.8933333333333335,-2.1733333333333333,37.93333333333334,-1.4634146341463417,-0.426829268292683,0.1829268292682927,0.017595307917888565,0.017595307917888565,0.020527859237536656,0.02346041055718475,0.01466275659824047,0.017595307917888565,42.3,-83.7,0.3,[0 0 1],[-0.04976866 -0.05712881 -0.99712556],0,0,0.0,0.0,-0.0,[0 0 0 1],[-0.00283452  0.00919733 -0.03024866  0.99949607]
1717188578.0367706,-1.8266666666666669,-2.2133333333333334,37.906666666666666,-1.6463414634146343,-0.06097560975609757,0.6707317073170732,0.017595307917888565,0.017595307917888565,0.020527859237536656,0.02346041055718475,0.01466275659824047,0.017595307917888565,42.3,-83.7,0.3,[0 0 1],[-0.04805103 -0.05822242 -0.99714655],0,0,0.0,0.0,-0.0,[0 0 0 1],[-0.01268024  0.00215906 -0.03516937  0.99929859]
1717188578.0645022,-1.8933333333333335,-2.146666666666667,37.88,-1.829268292682927,0.1829268292682927,0.3658536585365854,0.017595307917888565,0.017595307917888565,0.020527859237536656,0.02346041055718475,0.011730205278592375,0.017595307917888565,42.3,-83.7,0.3,[0 0 1],[-0.04984032 -0.05650909 -0.99715729],0,0,0.0,0.0,-0.0,[0 0 0 1],[-0.00842678 -0.00290757 -0.03914013  0.99919397]
1717188578.0915701,-1.8800000000000001,-1.8933333333333335,37.94666666666667,-0.9146341463414634,-0.06097560975609757,0.0,0.017595307917888565,0.01466275659824047,0.020527859237536656,0.02346041055718475,0.01466275659824047,0.01466275659824047,42.3,-83.7,0.3,[0 0 1],[-0.0494212  -0.0497717  -0.99753713],0,0,0.0,0.0,-0.0,[0 0 0 1],[-1.31845721e-03  8.81915263e-04 -2.30292069e-02  9.99733534e-01]
1717188578.1184623,-1.9066666666666667,-1.8266666666666669,37.89333333333334,-1.6463414634146343,0.24390243902439027,0.6097560975609757,0.017595307917888565,0.017595307917888565,0.017595307917888565,0.02346041055718475,0.011730205278592375,0.017595307917888565,42.3,-83.7,0.3,[0 0 1],[-0.05019496 -0.04808888 -0.99758104],0,0,0.0,0.0,-0.0,[0 0 0 1],[-0.01144339 -0.00465087 -0.03404751  0.99934388]
1717188578.1456027,-1.9066666666666667,-1.7333333333333334,37.93333333333334,-1.7682926829268295,0.24390243902439027,0.6707317073170732,0.017595307917888565,0.01466275659824047,0.020527859237536656,0.02346041055718475,0.01466275659824047,0.017595307917888565,42.3,-83.7,0.3,[0 0 1],[-0.05014805 -0.04558914 -0.99770076],0,0,0.0,0.0,-0.0,[0 0 0 1],[-0.01411019 -0.00524962 -0.03774914  0.99917383]
1717188578.1728888,-1.8933333333333335,-1.7866666666666668,37.906666666666666,-1.6463414634146343,-0.24390243902439027,0.24390243902439027,0.017595307917888565,0.01466275659824047,0.020527859237536656,0.02346041055718475,0.011730205278592375,0.017595307917888565,42.3,-83.7,0.3,[0 0 1],[-0.04982987 -0.04702255 -0.99765017],0,0,0.0,0.0,-0.0,[0 0 0 1],[-0.00691777  0.00407642 -0.0361243   0.99931505]
1717188578.1994855,-1.8800000000000001,-1.8133333333333335,37.92,-1.4634146341463417,-0.3658536585365854,0.24390243902439027,0.017595307917888565,0.01466275659824047,0.020527859237536656,0.02346041055718475,0.01466275659824047,0.01466275659824047,42.3,-83.7,0.3,[0 0 1],[-0.04946086 -0.04770693 -0.99763604],0,0,0.0,0.0,-0.0,[0 0 0 1],[-0.00571037  0.00748141 -0.03264306  0.99942276]
1717188578.2275105,-1.9066666666666667,-1.7733333333333334,37.94666666666667,-2.0121951219512195,0.6097560975609757,0.853658536585366,0.017595307917888565,0.017595307917888565,0.020527859237536656,0.02346041055718475,0.01466275659824047,0.017595307917888565,42.3,-83.7,0.3,[0 0 1],[-0.05012808 -0.04662262 -0.997654  ],0,0,0.0,0.0,-0.0,[0 0 0 1],[-0.01588071 -0.01047825 -0.04183315  0.99894344]
1717188578.256587,-1.6266666666666667,-2.2,37.94666666666667,-1.3414634146341464,-0.5487804878048781,0.12195121951219513,0.017595307917888565,0.017595307917888565,0.020527859237536656,0.02346041055718475,0.01466275659824047,0.017595307917888565,42.3,-83.7,0.3,[0 0 1],[-0.04275619 -0.05782599 -0.99741068],0,0,0.0,0.0,-0.0,[0 0 0 1],[-0.00527335  0.00911819 -0.03105263  0.99946225]
1717188578.2799854,-1.9066666666666667,-1.9200000000000002,37.93333333333334,-1.7682926829268295,0.30487804878048785,0.48780487804878053,0.017595307917888565,0.017595307917888565,0.020527859237536656,0.02346041055718475,0.011730205278592375,0.017595307917888565,42.3,-83.7,0.3,[0 0 1],[-0.05013623 -0.05048683 -0.99746551],0,0,0.0,0.0,-0.0,[0 0 0 1],[-0.00936335 -0.00449115 -0.03748429  0.99924326]
1717188578.3069527,-1.8800000000000001,-2.0,37.89333333333334,-1.0365853658536586,-0.6707317073170732,-0.06097560975609757,0.017595307917888565,0.01466275659824047,0.020527859237536656,0.02346041055718475,0.01466275659824047,0.017595307917888565,42.3,-83.7,0.3,[0 0 1],[-0.0494833  -0.0526418  -0.99738671],0,0,0.0,0.0,-0.0,[0 0 0 1],[-7.63219424e-04  1.22453564e-02 -2.48736684e-02  9.99615311e-01]
1717188578.3339725,-1.8533333333333335,-1.9733333333333334,37.92,-2.25609756097561,0.6097560975609757,1.1585365853658538,0.017595307917888565,0.01466275659824047,0.020527859237536656,0.02346041055718475,0.011730205278592375,0.017595307917888565,42.3,-83.7,0.3,[0 0 1],[-0.04875074 -0.05190727 -0.99746128],0,0,0.0,0.0,-0.0,[0 0 0 1],[-0.02042041 -0.00989194 -0.04480436  0.99873807]
1717188578.3624787,-1.8800000000000001,-2.12,37.88,-1.402439024390244,-0.12195121951219513,-0.12195121951219513,0.017595307917888565,0.017595307917888565,0.020527859237536656,0.02346041055718475,0.01466275659824047,0.017595307917888565,42.3,-83.7,0.3,[0 0 1],[-0.04949214 -0.05581029 -0.99721399],0,0,0.0,0.0,-0.0,[0 0 0 1],[-0.00100823  0.00151404 -0.0328178   0.9994597 ]
1717188578.3880017,-1.52,-2.6,37.906666666666666,-1.4634146341463417,0.12195121951219513,0.3658536585365854,0.017595307917888565,0.017595307917888565,0.020527859237536656,0.02346041055718475,0.01466275659824047,0.017595307917888565,42.3,-83.7,0.3,[0 0 1],[-0.03997252 -0.06837406 -0.99685866],0,0,0.0,0.0,-0.0,[0 0 0 1],[-0.00690165 -0.00227185 -0.03221975  0.9994544 ]
1717188578.4149573,-1.8666666666666667,-2.1733333333333333,37.906666666666666,-1.2195121951219514,-0.30487804878048785,-0.06097560975609757,0.017595307917888565,0.017595307917888565,0.020527859237536656,0.02346041055718475,0.01466275659824047,0.017595307917888565,42.3,-83.7,0.3,[0 0 1],[-0.04910371 -0.05717075 -0.99715612],0,0,0.0,0.0,-0.0,[0 0 0 1],[-8.24516189e-05  5.62503343e-03 -2.76388960e-02  9.99602143e-01]
1717188578.441972,-1.8266666666666669,-2.146666666666667,37.906666666666666,-2.073170731707317,0.12195121951219513,0.6707317073170732,0.017595307917888565,0.017595307917888565,0.020527859237536656,0.02346041055718475,0.011730205278592375,0.017595307917888565,42.3,-83.7,0.3,[0 0 1],[-0.04805586 -0.05647441 -0.99724685],0,0,0.0,0.0,-0.0,[0 0 0 1],[-0.01211968 -0.0017976  -0.0422528   0.99903182]
1717188578.4689634,-1.7466666666666668,-2.2,37.88,-1.8902439024390245,-0.30487804878048785,0.24390243902439027,0.017595307917888565,0.017595307917888565,0.020527859237536656,0.02346041055718475,0.01466275659824047,0.017595307917888565,42.3,-83.7,0.3,[0 0 1],[-0.04598426 -0.0579191  -0.99726166],0,0,0.0,0.0,-0.0,[0 0 0 1],[-0.00656288  0.00564958 -0.04108856  0.99911798]
1717188578.496157,-1.7333333333333334,-2.0933333333333333,37.88,-1.6463414634146343,-0.06097560975609757,0.3658536585365854,0.017595307917888565,0.017595307917888565,0.020527859237536656,0.02346041055718475,0.011730205278592375,0.017595307917888565,42.3,-83.7,0.3,[0 0 1],[-0.04564121 -0.05512054 -0.99743602],0,0,0.0,0.0,-0.0,[0 0 0 1],[-0.00765818  0.00187013 -0.03671893  0.99929454]
1717188578.5231004,-1.5733333333333335,-1.8800000000000001,37.92,-2.0121951219512195,0.24390243902439027,0.5487804878048781,0.017595307917888565,0.017595307917888565,0.020527859237536656,0.02346041055718475,0.011730205278592375,0.017595307917888565,42.3,-83.7,0.3,[0 0 1],[-0.04140442 -0.04947478 -0.99791679],0,0,0.0,0.0,-0.0,[0 0 0 1],[-0.01100745 -0.00433854 -0.04250063  0.99902638]
1717188578.550055,-1.6133333333333335,-1.8933333333333335,37.92,-1.707317073170732,0.24390243902439027,0.30487804878048785,0.017595307917888565,0.01466275659824047,0.020527859237536656,0.02346041055718475,0.011730205278592375,0.017595307917888565,42.3,-83.7,0.3,[0 0 1],[-0.04245447 -0.0498226  -0.99785536],0,0,0.0,0.0,-0.0,[0 0 0 1],[-0.00721375 -0.00506795 -0.03799806  0.99923892]
1717188578.5770144,-1.52,-1.8,37.906666666666666,-1.707317073170732,-0.24390243902439027,0.3658536585365854,0.017595307917888565,0.017595307917888565,0.020527859237536656,0.02346041055718475,0.011730205278592375,0.017595307917888565,42.3,-83.7,0.3,[0 0 1],[-0.04002127 -0.04739361 -0.99807422],0,0,0.0,0.0,-0.0,[0 0 0 1],[-0.0081991   0.00380282 -0.03725032  0.99926509]
1717188578.6040113,-1.4666666666666668,-1.9333333333333333,37.92,-1.4634146341463417,-0.06097560975609757,0.30487804878048785,0.017595307917888565,0.017595307917888565,0.020527859237536656,0.02346041055718475,0.01466275659824047,0.017595307917888565,42.3,-83.7,0.3,[0 0 1],[-0.03859896 -0.05088045 -0.99795857],0,0,0.0,0.0,-0.0,[0 0 0 1],[-0.00684607  0.00170441 -0.03286844  0.99943479]
1717188578.6311967,-1.4533333333333334,-1.8266666666666669,37.92,-2.1951219512195124,0.24390243902439027,0.7926829268292683,0.017595307917888565,0.017595307917888565,0.020527859237536656,0.02346041055718475,0.011730205278592375,0.017595307917888565,42.3,-83.7,0.3,[0 0 1],[-0.03825389 -0.04808058 -0.99811066],0,0,0.0,0.0,-0.0,[0 0 0 1],[-0.01531015 -0.00444493 -0.04500471  0.99885956]
1717188578.6581116,-1.4800000000000002,-1.8266666666666669,37.93333333333334,-1.3414634146341464,-0.24390243902439027,0.06097560975609757,0.017595307917888565,0.01466275659824047,0.020527859237536656,0.02346041055718475,0.011730205278592375,0.017595307917888565,42.3,-83.7,0.3,[0 0 1],[-0.0389411  -0.04806244 -0.99808496],0,0,0.0,0.0,-0.0,[0 0 0 1],[-0.00367395  0.00429052 -0.03168182  0.99948204]
1717188578.6861055,-1.5866666666666667,-1.8,37.96,-1.402439024390244,0.0,0.30487804878048785,0.017595307917888565,0.01466275659824047,0.020527859237536656,0.02346041055718475,0.011730205278592375,0.017595307917888565,42.3,-83.7,0.3,[0 0 1],[-0.04171513 -0.04732389 -0.99800817],0,0,0.0,0.0,-0.0,[0 0 0 1],[-6.15265850e-03  5.32171520e-04 -3.09738027e-02  9.99501118e-01]
1717188578.7121572,-1.6933333333333334,-2.146666666666667,37.86666666666667,-1.7682926829268295,0.06097560975609757,0.6707317073170732,0.017595307917888565,0.01466275659824047,0.020527859237536656,0.02346041055718475,0.01466275659824047,0.017595307917888565,42.3,-83.7,0.3,[0 0 1],[-0.04460219 -0.05654294 -0.9974034 ],0,0,0.0,0.0,-0.0,[0 0 0 1],[-0.0133112  -0.00124394 -0.03734484  0.999213  ]
1717188578.739269,-1.6800000000000002,-2.3866666666666667,37.92,-1.3414634146341464,-0.06097560975609757,0.426829268292683,0.017595307917888565,0.017595307917888565,0.020527859237536656,0.02346041055718475,0.011730205278592375,0.017595307917888565,42.3,-83.7,0.3,[0 0 1],[-0.04417315 -0.06275391 -0.99705099],0,0,0.0,0.0,-0.0,[0 0 0 1],[-0.01002647  0.00100515 -0.03060655  0.99948071]
1717188578.772876,-2.08,-2.1733333333333333,37.92,-1.0365853658536586,-0.24390243902439027,0.0,0.017595307917888565,0.017595307917888565,0.020527859237536656,0.02346041055718475,0.011730205278592375,0.017595307917888565,42.3,-83.7,0.3,[0 0 1],[-0.05468052 -0.05713413 -0.99686796],0,0,0.0,0.0,-0.0,[0 0 0 1],[-0.00157314  0.00496275 -0.0240203   0.99969792]
1717188578.7933578,-2.08,-2.1733333333333333,37.693333333333335,-1.707317073170732,0.24390243902439027,0.30487804878048785,0.017595307917888565,0.01466275659824047,0.020527859237536656,0.02346041055718475,0.011730205278592375,0.017595307917888565,42.3,-83.7,0.3,[0 0 1],[-0.05500726 -0.05747554 -0.99683036],0,0,0.0,0.0,-0.0,[0 0 0 1],[-0.00565338 -0.00393556 -0.03536585  0.99935069]
1717188578.8203983,-1.9200000000000002,-2.4266666666666667,37.906666666666666,-1.829268292682927,0.0,0.5487804878048781,0.017595307917888565,0.017595307917888565,0.020527859237536656,0.02346041055718475,0.01466275659824047,0.017595307917888565,42.3,-83.7,0.3,[0 0 1],[-0.0504828  -0.06380465 -0.99668473],0,0,0.0,0.0,-0.0,[0 0 0 1],[-1.11513078e-02 -7.28618050e-04 -3.90338121e-02  9.99175399e-01]
1717188578.8474233,-1.9333333333333333,-2.5333333333333337,37.96,-1.7682926829268295,0.12195121951219513,0.7317073170731708,0.017595307917888565,0.017595307917888565,0.020527859237536656,0.02346041055718475,0.01466275659824047,0.017595307917888565,42.3,-83.7,0.3,[0 0 1],[-0.05075227 -0.06650298 -0.99649464],0,0,0.0,0.0,-0.0,[0 0 0 1],[-0.015136   -0.0025374  -0.03846912  0.99914193]
1717188578.8743258,-1.8933333333333335,-2.4133333333333336,37.98666666666667,-1.6463414634146343,-0.30487804878048785,0.24390243902439027,0.017595307917888565,0.01466275659824047,0.020527859237536656,0.02346041055718475,0.011730205278592375,0.017595307917888565,42.3,-83.7,0.3,[0 0 1],[-0.04968034 -0.06332495 -0.99675564],0,0,0.0,0.0,-0.0,[0 0 0 1],[-0.00702652  0.00563264 -0.03620931  0.99930365]
1717188578.901322,-1.7866666666666668,-2.466666666666667,38.053333333333335,-1.524390243902439,0.24390243902439027,0.30487804878048785,0.017595307917888565,0.017595307917888565,0.017595307917888565,0.02346041055718475,0.011730205278592375,0.017595307917888565,42.3,-83.7,0.3,[0 0 1],[-0.04680197 -0.06461466 -0.99681218],0,0,0.0,0.0,-0.0,[0 0 0 1],[-0.00640099 -0.00377472 -0.03385897  0.99939899]
1717188578.9284196,-1.6800000000000002,-2.2800000000000002,38.06666666666667,-1.402439024390244,-0.24390243902439027,0.3658536585365854,0.017595307917888565,0.017595307917888565,0.020527859237536656,0.02346041055718475,0.011730205278592375,0.017595307917888565,42.3,-83.7,0.3,[0 0 1],[-0.04401146 -0.05972984 -0.99724387],0,0,0.0,0.0,-0.0,[0 0 0 1],[-0.0080549   0.00397999 -0.03118395  0.99947328]
1717188578.955384,-1.5866666666666667,-2.3466666666666667,38.17333333333334,-2.1341463414634148,0.6097560975609757,0.6097560975609757,0.017595307917888565,0.017595307917888565,0.020527859237536656,0.02346041055718475,0.011730205278592375,0.017595307917888565,42.3,-83.7,0.3,[0 0 1],[-0.04145082 -0.06130542 -0.99725798],0,0,0.0,0.0,-0.0,[0 0 0 1],[-0.01184504 -0.0106929  -0.04378577  0.99891349]
1717188578.98246,-1.6266666666666667,-2.3200000000000003,38.24,-1.2804878048780488,-0.3658536585365854,0.24390243902439027,0.017595307917888565,0.017595307917888565,0.020527859237536656,0.02346041055718475,0.011730205278592375,0.017595307917888565,42.3,-83.7,0.3,[0 0 1],[-0.04242206 -0.06050359 -0.99726611],0,0,0.0,0.0,-0.0,[0 0 0 1],[-0.00686321  0.00543813 -0.03030716  0.99950228]
1717188579.0094237,-1.4933333333333334,-2.3600000000000003,38.29333333333334,-1.707317073170732,0.12195121951219513,0.48780487804878053,0.017595307917888565,0.01466275659824047,0.020527859237536656,0.02346041055718475,0.011730205278592375,0.017595307917888565,42.3,-83.7,0.3,[0 0 1],[-0.03889391 -0.06146627 -0.99735107],0,0,0.0,0.0,-0.0,[0 0 0 1],[-0.00984544 -0.00155849 -0.03626992  0.99929232]
1717188579.0367787,-1.5466666666666669,-2.3066666666666666,38.34666666666667,-1.524390243902439,0.1829268292682927,0.48780487804878053,0.017595307917888565,0.01466275659824047,0.020527859237536656,0.02346041055718475,0.011730205278592375,0.017595307917888565,42.3,-83.7,0.3,[0 0 1],[-0.04022843 -0.05999585 -0.99738767],0,0,0.0,0.0,-0.0,[0 0 0 1],[-0.0104762  -0.00370318 -0.03379589  0.99936699]
1717188579.0634696,-1.4933333333333334,-2.3466666666666667,38.266666666666666,-1.829268292682927,0.426829268292683,0.853658536585366,0.017595307917888565,0.017595307917888565,0.020527859237536656,0.02346041055718475,0.01466275659824047,0.017595307917888565,42.3,-83.7,0.3,[0 0 1],[-0.0389217  -0.06116268 -0.99736865],0,0,0.0,0.0,-0.0,[0 0 0 1],[-0.01716214 -0.00861424 -0.03871145  0.9990659 ]
1717188579.0904732,-1.4400000000000002,-2.3466666666666667,38.22666666666667,-1.3414634146341464,-0.1829268292682927,0.12195121951219513,0.017595307917888565,0.017595307917888565,0.020527859237536656,0.02346041055718475,0.01466275659824047,0.017595307917888565,42.3,-83.7,0.3,[0 0 1],[-0.03757271 -0.0612296  -0.99741628],0,0,0.0,0.0,-0.0,[0 0 0 1],[-0.00512184  0.00255125 -0.03077562  0.99950994]
1717188579.1175013,-1.8133333333333335,-2.3333333333333335,38.160000000000004,-1.707317073170732,-0.06097560975609757,0.426829268292683,0.017595307917888565,0.017595307917888565,0.020527859237536656,0.02346041055718475,0.01466275659824047,0.017595307917888565,42.3,-83.7,0.3,[0 0 1],[-0.04737737 -0.06096353 -0.99701496],0,0,0.0,0.0,-0.0,[0 0 0 1],[-0.00865883  0.00142127 -0.03630391  0.99930227]
1717188579.1445806,-2.0533333333333337,-2.186666666666667,38.04,-1.5853658536585367,0.12195121951219513,0.24390243902439027,0.017595307917888565,0.017595307917888565,0.020527859237536656,0.02346041055718475,0.011730205278592375,0.017595307917888565,42.3,-83.7,0.3,[0 0 1],[-0.05381123 -0.05730546 -0.99690543],0,0,0.0,0.0,-0.0,[0 0 0 1],[-0.00568834 -0.00199135 -0.03495235  0.99937081]
1717188579.1716099,-2.1333333333333333,-2.2666666666666666,37.98666666666667,-1.1585365853658538,-0.1829268292682927,0.12195121951219513,0.017595307917888565,0.017595307917888565,0.020527859237536656,0.02346041055718475,0.01466275659824047,0.017595307917888565,42.3,-83.7,0.3,[0 0 1],[-0.05597246 -0.05947074 -0.99665958],0,0,0.0,0.0,-0.0,[0 0 0 1],[-0.00329251  0.0032151  -0.02693248  0.99962666]
1717188579.1997476,-2.0133333333333336,-2.2133333333333334,37.92,-1.707317073170732,0.30487804878048785,0.48780487804878053,0.017595307917888565,0.01466275659824047,0.020527859237536656,0.02346041055718475,0.011730205278592375,0.017595307917888565,42.3,-83.7,0.3,[0 0 1],[-0.05292972 -0.05818764 -0.99690152],0,0,0.0,0.0,-0.0,[0 0 0 1],[-0.00931713 -0.00537153 -0.03575027  0.99930289]
1717188579.2257032,-2.0133333333333336,-2.0533333333333337,38.28,-1.829268292682927,0.24390243902439027,0.6707317073170732,0.017595307917888565,0.017595307917888565,0.020527859237536656,0.02346041055718475,0.011730205278592375,0.017595307917888565,42.3,-83.7,0.3,[0 0 1],[-0.05244713 -0.05348913 -0.99719016],0,0,0.0,0.0,-0.0,[0 0 0 1],[-0.01380879 -0.0054246  -0.03904815  0.99912719]
1717188579.2714581,-1.8,-2.04,37.92,-1.402439024390244,0.06097560975609757,0.48780487804878053,0.017595307917888565,0.017595307917888565,0.020527859237536656,0.02346041055718475,0.01466275659824047,0.017595307917888565,42.3,-83.7,0.3,[0 0 1],[-0.04734665 -0.05365954 -0.99743619],0,0,0.0,0.0,-0.0,[0 0 0 1],[-0.01125247 -0.00191976 -0.03194049  0.99942459]
1717188579.3072164,-1.8533333333333335,-2.16,37.89333333333334,-1.4634146341463417,-0.24390243902439027,0.1829268292682927,0.017595307917888565,0.01466275659824047,0.020527859237536656,0.02346041055718475,0.011730205278592375,0.017595307917888565,42.3,-83.7,0.3,[0 0 1],[-0.04877184 -0.056842   -0.9971912 ],0,0,0.0,0.0,-0.0,[0 0 0 1],[-0.00525379  0.00450829 -0.03203504  0.99946277]
1717188579.3362472,-1.8933333333333335,-2.1333333333333333,37.92,-1.524390243902439,-0.426829268292683,0.1829268292682927,0.017595307917888565,0.017595307917888565,0.020527859237536656,0.02346041055718475,0.011730205278592375,0.017595307917888565,42.3,-83.7,0.3,[0 0 1],[-0.04978902 -0.05610031 -0.99718294],0,0,0.0,0.0,-0.0,[0 0 0 1],[-0.00431155  0.00869195 -0.03315583  0.9994031 ]
1717188579.3662236,-1.8266666666666669,-2.2133333333333334,37.906666666666666,-1.6463414634146343,0.1829268292682927,0.5487804878048781,0.017595307917888565,0.017595307917888565,0.020527859237536656,0.02346041055718475,0.011730205278592375,0.017595307917888565,42.3,-83.7,0.3,[0 0 1],[-0.04805103 -0.05822242 -0.99714655],0,0,0.0,0.0,-0.0,[0 0 0 1],[-0.01049025 -0.00238463 -0.0356056   0.99930802]
1717188579.4032176,-2.026666666666667,-2.1333333333333333,37.96,-1.7682926829268295,-0.12195121951219513,0.30487804878048785,0.017595307917888565,0.017595307917888565,0.020527859237536656,0.02346041055718475,0.011730205278592375,0.017595307917888565,42.3,-83.7,0.3,[0 0 1],[-0.05322985 -0.05603142 -0.99700906],0,0,0.0,0.0,-0.0,[0 0 0 1],[-0.00734654  0.00207964 -0.03804513  0.99924685]
1717188579.4302769,-1.8666666666666667,-2.16,37.81333333333333,-2.1341463414634148,-0.06097560975609757,0.426829268292683,0.017595307917888565,0.017595307917888565,0.020527859237536656,0.02346041055718475,0.011730205278592375,0.017595307917888565,42.3,-83.7,0.3,[0 0 1],[-0.04922521 -0.0569606  -0.99716216],0,0,0.0,0.0,-0.0,[0 0 0 1],[-0.00888214  0.00140956 -0.04479993  0.9989555 ]
1717188579.4612627,-1.8533333333333335,-2.1333333333333333,37.89333333333334,-1.7682926829268295,-0.24390243902439027,0.30487804878048785,0.017595307917888565,0.017595307917888565,0.020527859237536656,0.02346041055718475,0.011730205278592375,0.017595307917888565,42.3,-83.7,0.3,[0 0 1],[-0.04877378 -0.05614248 -0.99723074],0,0,0.0,0.0,-0.0,[0 0 0 1],[-0.00711272  0.00478986 -0.03934961  0.99918871]
1717188579.4911778,-1.8533333333333335,-2.1333333333333333,37.906666666666666,-1.524390243902439,0.12195121951219513,0.3658536585365854,0.017595307917888565,0.017595307917888565,0.020527859237536656,0.02346041055718475,0.011730205278592375,0.017595307917888565,42.3,-83.7,0.3,[0 0 1],[-0.04875672 -0.05612284 -0.99723268],0,0,0.0,0.0,-0.0,[0 0 0 1],[-0.00765754 -0.00166795 -0.03429553  0.99938101]
1717188579.5262012,-1.8533333333333335,-2.106666666666667,37.92,-1.6463414634146343,-0.12195121951219513,0.3658536585365854,0.017595307917888565,0.01466275659824047,0.020527859237536656,0.02346041055718475,0.011730205278592375,0.017595307917888565,42.3,-83.7,0.3,[0 0 1],[-0.04874157 -0.05540409 -0.99727361],0,0,0.0,0.0,-0.0,[0 0 0 1],[-0.00807126  0.0020447  -0.03568459  0.99932842]
1717188579.557237,-1.5333333333333334,-1.9866666666666668,37.86666666666667,-1.4634146341463417,0.06097560975609757,0.30487804878048785,0.017595307917888565,0.01466275659824047,0.020527859237536656,0.02346041055718475,0.011730205278592375,0.017595307917888565,42.3,-83.7,0.3,[0 0 1],[-0.04040432 -0.05234995 -0.99781109],0,0,0.0,0.0,-0.0,[0 0 0 1],[-6.79246245e-03 -8.34796286e-04 -3.26521643e-02  9.99443346e-01]
1717188579.5811508,-2.026666666666667,-1.9866666666666668,38.160000000000004,-1.7682926829268295,0.12195121951219513,0.3658536585365854,0.017595307917888565,0.017595307917888565,0.020527859237536656,0.02346041055718475,0.011730205278592375,0.017595307917888565,42.3,-83.7,0.3,[0 0 1],[-0.05296344 -0.05191811 -0.9972459 ],0,0,0.0,0.0,-0.0,[0 0 0 1],[-0.00774829 -0.00239333 -0.03766058  0.99925768]
1717188579.608144,-2.026666666666667,-2.3866666666666667,38.080000000000005,-1.402439024390244,-0.1829268292682927,0.12195121951219513,0.017595307917888565,0.017595307917888565,0.020527859237536656,0.02346041055718475,0.011730205278592375,0.017595307917888565,42.3,-83.7,0.3,[0 0 1],[-0.05304229 -0.06246428 -0.99663671],0,0,0.0,0.0,-0.0,[0 0 0 1],[-0.00360345  0.00321726 -0.03178605  0.99948302]
1717188579.6371598,-2.106666666666667,-2.2533333333333334,38.04,-1.6463414634146343,0.12195121951219513,0.426829268292683,0.017595307917888565,0.017595307917888565,0.020527859237536656,0.02346041055718475,0.011730205278592375,0.017595307917888565,42.3,-83.7,0.3,[0 0 1],[-0.05519911 -0.05904208 -0.99672819],0,0,0.0,0.0,-0.0,[0 0 0 1],[-0.0083281  -0.00196431 -0.03537581  0.99933745]
1717188579.671278,-2.106666666666667,-1.7733333333333334,38.22666666666667,-1.707317073170732,0.1829268292682927,0.5487804878048781,0.017595307917888565,0.017595307917888565,0.020527859237536656,0.02346041055718475,0.011730205278592375,0.017595307917888565,42.3,-83.7,0.3,[0 0 1],[-0.05496744 -0.04627006 -0.99741549],0,0,0.0,0.0,-0.0,[0 0 0 1],[-0.01137119 -0.00379104 -0.03691666  0.99924646]
1717188579.6951544,-2.026666666666667,-2.1333333333333333,37.82666666666667,-1.5853658536585367,-0.30487804878048785,0.12195121951219513,0.017595307917888565,0.017595307917888565,0.020527859237536656,0.02346041055718475,0.011730205278592375,0.017595307917888565,42.3,-83.7,0.3,[0 0 1],[-0.05341635 -0.05622774 -0.99698803],0,0,0.0,0.0,-0.0,[0 0 0 1],[-0.00423867  0.00542496 -0.03492986  0.99936605]
1717188579.735181,-1.8666666666666667,-2.08,37.89333333333334,-1.6463414634146343,-0.12195121951219513,0.1829268292682927,0.017595307917888565,0.017595307917888565,0.020527859237536656,0.02346041055718475,0.011730205278592375,0.017595307917888565,42.3,-83.7,0.3,[0 0 1],[-0.04912765 -0.05474223 -0.99729121],0,0,0.0,0.0,-0.0,[0 0 0 1],[-0.0039447   0.00307119 -0.0358385   0.99934509]
1717188579.7651587,-1.8533333333333335,-2.16,37.88,-1.707317073170732,0.0,0.5487804878048781,0.017595307917888565,0.017595307917888565,0.020527859237536656,0.02346041055718475,0.011730205278592375,0.017595307917888565,42.3,-83.7,0.3,[0 0 1],[-0.04878891 -0.0568619  -0.99718923],0,0,0.0,0.0,-0.0,[0 0 0 1],[-1.07085573e-02  1.96579180e-04 -3.70136880e-02  9.99257362e-01]
1717188579.7911916,-1.84,-2.08,37.93333333333334,-1.829268292682927,0.06097560975609757,0.5487804878048781,0.017595307917888565,0.01466275659824047,0.020527859237536656,0.02346041055718475,0.011730205278592375,0.017595307917888565,42.3,-83.7,0.3,[0 0 1],[-0.04837669 -0.05468669 -0.99733097],0,0,0.0,0.0,-0.0,[0 0 0 1],[-0.01168749 -0.00112029 -0.03932245  0.99915759]
1717188579.8201797,-1.8533333333333335,-1.8266666666666669,37.88,-1.4634146341463417,-0.12195121951219513,0.12195121951219513,0.017595307917888565,0.01466275659824047,0.020527859237536656,0.02346041055718475,0.011730205278592375,0.017595307917888565,42.3,-83.7,0.3,[0 0 1],[-0.04881139 -0.04810907 -0.99764872],0,0,0.0,0.0,-0.0,[0 0 0 1],[-0.00409398  0.00236362 -0.03313874  0.99943958]
1717188579.8491786,-1.8266666666666669,-1.9466666666666668,37.92,-1.524390243902439,0.0,0.06097560975609757,0.017595307917888565,0.017595307917888565,0.020527859237536656,0.02346041055718475,0.011730205278592375,0.017595307917888565,42.3,-83.7,0.3,[0 0 1],[-0.04805266 -0.05120941 -0.99753122],0,0,0.0,0.0,-0.0,[0 0 0 1],[-1.66530320e-03  4.18602324e-04 -3.33933363e-02  9.99440812e-01]
1717188579.8762903,-1.6533333333333335,-1.9066666666666667,37.906666666666666,-1.8902439024390245,0.30487804878048785,0.6097560975609757,0.017595307917888565,0.01466275659824047,0.020527859237536656,0.02346041055718475,0.011730205278592375,0.017595307917888565,42.3,-83.7,0.3,[0 0 1],[-0.04351956 -0.05018788 -0.99779117],0,0,0.0,0.0,-0.0,[0 0 0 1],[-0.0113493  -0.00591872 -0.0398327   0.99912438]
1717188579.9092293,-1.9333333333333333,-2.4000000000000004,38.30666666666667,-1.5853658536585367,0.06097560975609757,0.1829268292682927,0.017595307917888565,0.017595307917888565,0.020527859237536656,0.02346041055718475,0.011730205278592375,0.017595307917888565,42.3,-83.7,0.3,[0 0 1],[-0.05030735 -0.0624505  -0.99677937],0,0,0.0,0.0,-0.0,[0 0 0 1],[-0.00518788 -0.00179098 -0.03543282  0.99935699]
1717188579.9412608,-1.84,-2.146666666666667,37.720000000000006,-1.6463414634146343,0.0,0.3658536585365854,0.017595307917888565,0.017595307917888565,0.020527859237536656,0.02346041055718475,0.011730205278592375,0.017595307917888565,42.3,-83.7,0.3,[0 0 1],[-0.04864403 -0.05675137 -0.99720261],0,0,0.0,0.0,-0.0,[0 0 0 1],[-7.64435561e-03 -3.38989979e-04 -3.58677592e-02  9.99327250e-01]
1717188579.9792273,-1.8533333333333335,-2.0933333333333333,37.89333333333334,-1.524390243902439,-0.12195121951219513,0.3658536585365854,0.017595307917888565,0.017595307917888565,0.020527859237536656,0.02346041055718475,0.011730205278592375,0.017595307917888565,42.3,-83.7,0.3,[0 0 1],[-0.04877663 -0.05509303 -0.99728912],0,0,0.0,0.0,-0.0,[0 0 0 1],[-0.00805308  0.00221211 -0.03372802  0.99939616]
1717188580.012301,-1.84,-2.106666666666667,37.906666666666666,-1.8902439024390245,-0.12195121951219513,0.24390243902439027,0.017595307917888565,0.017595307917888565,0.020527859237536656,0.02346041055718475,0.011730205278592375,0.017595307917888565,42.3,-83.7,0.3,[0 0 1],[-0.04840867 -0.05542442 -0.99728869],0,0,0.0,0.0,-0.0,[0 0 0 1],[-0.00568334  0.00271452 -0.03996785  0.99918112]
1717188580.056302,-1.7333333333333334,-2.2800000000000002,37.77333333333333,-1.829268292682927,0.1829268292682927,0.24390243902439027,0.017595307917888565,0.01466275659824047,0.020527859237536656,0.02346041055718475,0.01466275659824047,0.017595307917888565,42.3,-83.7,0.3,[0 0 1],[-0.04575641 -0.06018728 -0.99713782],0,0,0.0,0.0,-0.0,[0 0 0 1],[-0.00512633 -0.00301044 -0.03981813  0.99918926]
1717188580.0852828,-1.84,-2.106666666666667,37.93333333333334,-1.707317073170732,-0.3658536585365854,0.48780487804878053,0.017595307917888565,0.01466275659824047,0.020527859237536656,0.02346041055718475,0.011730205278592375,0.017595307917888565,42.3,-83.7,0.3,[0 0 1],[-0.04837482 -0.05538566 -0.99729249],0,0,0.0,0.0,-0.0,[0 0 0 1],[-0.0101996   0.00619689 -0.03746797  0.99922656]
1717188580.124219,-1.9600000000000002,-2.3733333333333335,37.88,-1.402439024390244,-0.30487804878048785,0.30487804878048785,0.017595307917888565,0.017595307917888565,0.020527859237536656,0.02346041055718475,0.011730205278592375,0.017595307917888565,42.3,-83.7,0.3,[0 0 1],[-0.05157236 -0.06244817 -0.99671486],0,0,0.0,0.0,-0.0,[0 0 0 1],[-0.00725114  0.00667856 -0.03173728  0.99944763]
1717188580.1542535,-2.1733333333333333,-2.16,38.04,-2.0121951219512195,0.12195121951219513,0.30487804878048785,0.017595307917888565,0.01466275659824047,0.020527859237536656,0.02346041055718475,0.011730205278592375,0.017595307917888565,42.3,-83.7,0.3,[0 0 1],[-0.05694839 -0.05659901 -0.9967715 ],0,0,0.0,0.0,-0.0,[0 0 0 1],[-0.00636028 -0.00122388 -0.04186721  0.99910219]
1717188580.184305,-1.8133333333333335,-2.1333333333333333,37.906666666666666,-1.707317073170732,-0.24390243902439027,0.3658536585365854,0.017595307917888565,0.017595307917888565,0.020527859237536656,0.02346041055718475,0.011730205278592375,0.017595307917888565,42.3,-83.7,0.3,[0 0 1],[-0.04770683 -0.05612569 -0.99728329],0,0,0.0,0.0,-0.0,[0 0 0 1],[-0.00797231  0.00429793 -0.0378336   0.99924301]
1717188580.214221,-1.8666666666666667,-2.0933333333333333,37.92,-1.4634146341463417,-0.06097560975609757,0.30487804878048785,0.017595307917888565,0.017595307917888565,0.020527859237536656,0.02346041055718475,0.011730205278592375,0.017595307917888565,42.3,-83.7,0.3,[0 0 1],[-0.04909234 -0.05505355 -0.99727581],0,0,0.0,0.0,-0.0,[0 0 0 1],[-0.00680051  0.00176595 -0.03295524  0.99943213]
1717188580.2513545,-1.8666666666666667,-2.1733333333333333,37.89333333333334,-1.829268292682927,0.3658536585365854,0.5487804878048781,0.017595307917888565,0.01466275659824047,0.020527859237536656,0.02346041055718475,0.011730205278592375,0.017595307917888565,42.3,-83.7,0.3,[0 0 1],[-0.04912089 -0.05719075 -0.99715413],0,0,0.0,0.0,-0.0,[0 0 0 1],[-0.01088534 -0.00665641 -0.03875842  0.99916715]
1717188580.2823474,-1.8,-2.146666666666667,37.89333333333334,-1.707317073170732,-0.12195121951219513,0.6097560975609757,0.017595307917888565,0.017595307917888565,0.020527859237536656,0.02346041055718475,0.011730205278592375,0.017595307917888565,42.3,-83.7,0.3,[0 0 1],[-0.04737247 -0.05649606 -0.99727832],0,0,0.0,0.0,-0.0,[0 0 0 1],[-0.01322744  0.00123151 -0.03727572  0.99921671]
1717188580.311295,-1.52,-2.3466666666666667,37.64,-1.9512195121951221,-0.12195121951219513,0.3658536585365854,0.017595307917888565,0.017595307917888565,0.020527859237536656,0.02346041055718475,0.011730205278592375,0.017595307917888565,42.3,-83.7,0.3,[0 0 1],[-0.04027162 -0.06217373 -0.99725254],0,0,0.0,0.0,-0.0,[0 0 0 1],[-0.00871164  0.00266576 -0.0415053   0.99909675]
1717188580.340207,-1.8666666666666667,-2.106666666666667,38.10666666666667,-1.5853658536585367,-0.1829268292682927,0.3658536585365854,0.017595307917888565,0.017595307917888565,0.020527859237536656,0.02346041055718475,0.011730205278592375,0.017595307917888565,42.3,-83.7,0.3,[0 0 1],[-0.04885222 -0.05513322 -0.9972832 ],0,0,0.0,0.0,-0.0,[0 0 0 1],[-0.00816548  0.00378335 -0.03563643  0.9993243 ]
1717188580.3681853,-1.84,-2.106666666666667,37.81333333333333,-1.2804878048780488,-0.12195121951219513,0.12195121951219513,0.017595307917888565,0.01466275659824047,0.020527859237536656,0.02346041055718475,0.011730205278592375,0.017595307917888565,42.3,-83.7,0.3,[0 0 1],[-0.0485275  -0.05556047 -0.99727535],0,0,0.0,0.0,-0.0,[0 0 0 1],[-0.00346959  0.00296236 -0.02929351  0.99956044]
1717188580.3952835,-1.8266666666666669,-2.1333333333333333,37.653333333333336,-1.524390243902439,0.06097560975609757,0.30487804878048785,0.017595307917888565,0.017595307917888565,0.020527859237536656,0.02346041055718475,0.01466275659824047,0.017595307917888565,42.3,-83.7,0.3,[0 0 1],[-0.04837836 -0.05650027 -0.99722979],0,0,0.0,0.0,-0.0,[0 0 0 1],[-6.10233022e-03 -7.88093267e-04 -3.28377417e-02  9.99441756e-01]
1717188580.4232323,-1.8800000000000001,-2.08,37.733333333333334,-1.829268292682927,-0.24390243902439027,0.5487804878048781,0.017595307917888565,0.017595307917888565,0.020527859237536656,0.02346041055718475,0.011730205278592375,0.017595307917888565,42.3,-83.7,0.3,[0 0 1],[-0.04968635 -0.05497213 -0.99725089],0,0,0.0,0.0,-0.0,[0 0 0 1],[-0.01125233  0.0042976  -0.03866222  0.99917974]
1717188580.4512298,-1.8533333333333335,-2.1333333333333333,37.78666666666667,-1.3414634146341464,0.0,0.30487804878048785,0.017595307917888565,0.01466275659824047,0.020527859237536656,0.02346041055718475,0.011730205278592375,0.017595307917888565,42.3,-83.7,0.3,[0 0 1],[-0.04891069 -0.05630008 -0.99721514],0,0,0.0,0.0,-0.0,[0 0 0 1],[-7.25576588e-03  6.81279787e-04 -3.08660961e-02  9.99496960e-01]
1717188580.488222,-1.84,-2.12,37.906666666666666,-1.6463414634146343,0.12195121951219513,0.6097560975609757,0.017595307917888565,0.017595307917888565,0.020527859237536656,0.02346041055718475,0.011730205278592375,0.017595307917888565,42.3,-83.7,0.3,[0 0 1],[-0.04840772 -0.05577412 -0.99726924],0,0,0.0,0.0,-0.0,[0 0 0 1],[-0.01233616 -0.00230958 -0.03518822  0.99930189]
1717188580.5282564,-2.0133333333333336,-2.2800000000000002,37.88,-1.707317073170732,0.24390243902439027,0.6097560975609757,0.017595307917888565,0.017595307917888565,0.020527859237536656,0.02346041055718475,0.011730205278592375,0.017595307917888565,42.3,-83.7,0.3,[0 0 1],[-0.05297977 -0.05999696 -0.99679161],0,0,0.0,0.0,-0.0,[0 0 0 1],[-0.01304365 -0.0048853  -0.03688675  0.99922238]
1717188580.5562205,-1.8800000000000001,-2.1333333333333333,37.84,-1.5853658536585367,0.12195121951219513,0.30487804878048785,0.017595307917888565,0.017595307917888565,0.020527859237536656,0.02346041055718475,0.011730205278592375,0.017595307917888565,42.3,-83.7,0.3,[0 0 1],[-0.04954319 -0.05621922 -0.99718848],0,0,0.0,0.0,-0.0,[0 0 0 1],[-0.00764436 -0.00280884 -0.03500298  0.99935402]
1717188580.5882268,-1.8533333333333335,-2.106666666666667,37.906666666666666,-1.2195121951219514,-0.24390243902439027,0.0,0.017595307917888565,0.017595307917888565,0.020527859237536656,0.02346041055718475,0.011730205278592375,0.017595307917888565,42.3,-83.7,0.3,[0 0 1],[-0.04875862 -0.05542347 -0.9972717 ],0,0,0.0,0.0,-0.0,[0 0 0 1],[-0.00132951  0.00437725 -0.02804982  0.99959606]
1717188580.6172361,-1.84,-2.106666666666667,37.92,-1.707317073170732,0.24390243902439027,0.6097560975609757,0.017595307917888565,0.017595307917888565,0.020527859237536656,0.02346041055718475,0.011730205278592375,0.017595307917888565,42.3,-83.7,0.3,[0 0 1],[-0.04839174 -0.05540503 -0.99729059],0,0,0.0,0.0,-0.0,[0 0 0 1],[-0.0112934  -0.00420143 -0.03589151  0.99928305]
1717188580.6552114,-1.8533333333333335,-2.12,37.86666666666667,-1.8902439024390245,0.0,0.6097560975609757,0.017595307917888565,0.017595307917888565,0.020527859237536656,0.02346041055718475,0.011730205278592375,0.017595307917888565,42.3,-83.7,0.3,[0 0 1],[-0.04880889 -0.05583176 -0.99724646],0,0,0.0,0.0,-0.0,[0 0 0 1],[-1.30753809e-02 -6.06400735e-04 -4.01536938e-02  9.99107776e-01]
1717188580.6912308,-1.9600000000000002,-2.0933333333333333,38.0,-1.4634146341463417,-0.3658536585365854,-0.30487804878048785,0.017595307917888565,0.017595307917888565,0.020527859237536656,0.02346041055718475,0.011730205278592375,0.017595307917888565,42.3,-83.7,0.3,[0 0 1],[-0.0514327  -0.05493152 -0.99716458],0,0,0.0,0.0,-0.0,[0 0 0 1],[ 0.00355447  0.00737103 -0.03315025  0.99941688]
1717188580.7242992,-1.8666666666666667,-2.146666666666667,37.89333333333334,-1.9512195121951221,0.1829268292682927,0.7926829268292683,0.017595307917888565,0.017595307917888565,0.020527859237536656,0.02346041055718475,0.011730205278592375,0.017595307917888565,42.3,-83.7,0.3,[0 0 1],[-0.04912285 -0.05649128 -0.9971939 ],0,0,0.0,0.0,-0.0,[0 0 0 1],[-0.01378516 -0.00295716 -0.04088506  0.99906438]
1717188580.7521746,-1.8266666666666669,-2.106666666666667,37.906666666666666,-1.402439024390244,0.06097560975609757,0.3658536585365854,0.017595307917888565,0.017595307917888565,0.020527859237536656,0.02346041055718475,0.011730205278592375,0.017595307917888565,42.3,-83.7,0.3,[0 0 1],[-0.04805869 -0.05542535 -0.99730557],0,0,0.0,0.0,-0.0,[0 0 0 1],[-0.00889587 -0.00148994 -0.03225719  0.9994389 ]
1717188580.7801826,-1.8666666666666667,-2.106666666666667,37.89333333333334,-1.402439024390244,-0.30487804878048785,0.24390243902439027,0.017595307917888565,0.01466275659824047,0.020527859237536656,0.02346041055718475,0.011730205278592375,0.017595307917888565,42.3,-83.7,0.3,[0 0 1],[-0.04912575 -0.05544191 -0.99725265],0,0,0.0,0.0,-0.0,[0 0 0 1],[-0.00609127  0.00560759 -0.03096035  0.99948632]
1717188580.8112683,-1.8266666666666669,-2.1333333333333333,37.92,-1.402439024390244,0.30487804878048785,0.3658536585365854,0.017595307917888565,0.017595307917888565,0.020527859237536656,0.02346041055718475,0.011730205278592375,0.017595307917888565,42.3,-83.7,0.3,[0 0 1],[-0.04804001 -0.05610512 -0.99726846],0,0,0.0,0.0,-0.0,[0 0 0 1],[-0.00742792 -0.00497864 -0.03088828  0.99948284]
1717188580.8417556,-1.8666666666666667,-2.0933333333333333,37.906666666666666,-1.6463414634146343,0.12195121951219513,0.30487804878048785,0.017595307917888565,0.017595307917888565,0.020527859237536656,0.02346041055718475,0.011730205278592375,0.017595307917888565,42.3,-83.7,0.3,[0 0 1],[-0.04910951 -0.05507281 -0.9972739 ],0,0,0.0,0.0,-0.0,[0 0 0 1],[-0.00685249 -0.00294231 -0.03522478  0.99935159]
1717188580.8916247,-1.8266666666666669,-2.1733333333333333,37.693333333333335,-1.4634146341463417,0.0,0.24390243902439027,0.017595307917888565,0.017595307917888565,0.020527859237536656,0.02346041055718475,0.011730205278592375,0.017595307917888565,42.3,-83.7,0.3,[0 0 1],[-0.04832439 -0.05749544 -0.99717553],0,0,0.0,0.0,-0.0,[0 0 0 1],[-5.65101576e-03 -3.95737162e-04 -3.25602510e-02  9.99453721e-01]
1717188580.92048,-1.84,-2.106666666666667,37.88,-1.1585365853658538,-0.24390243902439027,-0.1829268292682927,0.017595307917888565,0.017595307917888565,0.020527859237536656,0.02346041055718475,0.011730205278592375,0.017595307917888565,42.3,-83.7,0.3,[0 0 1],[-0.04844256 -0.05546322 -0.99728489],0,0,0.0,0.0,-0.0,[0 0 0 1],[ 0.00248256  0.00478958 -0.0265774   0.9996322 ]
1717188580.951369,-1.9466666666666668,-1.9066666666666667,37.92,-1.8902439024390245,-0.06097560975609757,0.6097560975609757,0.017595307917888565,0.017595307917888565,0.020527859237536656,0.02346041055718475,0.01466275659824047,0.017595307917888565,42.3,-83.7,0.3,[0 0 1],[-0.05120412 -0.05015198 -0.99742815],0,0,0.0,0.0,-0.0,[0 0 0 1],[-0.01083286  0.00142366 -0.03892985  0.99918221]
1717188580.97944,-1.9466666666666668,-1.9066666666666667,37.62666666666667,-1.4634146341463417,0.0,0.12195121951219513,0.017595307917888565,0.017595307917888565,0.020527859237536656,0.02346041055718475,0.01466275659824047,0.017595307917888565,42.3,-83.7,0.3,[0 0 1],[-0.05160122 -0.05054093 -0.99738805],0,0,0.0,0.0,-0.0,[0 0 0 1],[-3.81126148e-03  4.13653680e-04 -3.31188290e-02  9.99444069e-01]
1717188581.0222113,-1.8266666666666669,-2.12,37.906666666666666,-2.0121951219512195,0.426829268292683,0.5487804878048781,0.017595307917888565,0.01466275659824047,0.020527859237536656,0.02346041055718475,0.011730205278592375,0.017595307917888565,42.3,-83.7,0.3,[0 0 1],[-0.04805776 -0.05577506 -0.99728611],0,0,0.0,0.0,-0.0,[0 0 0 1],[-0.01041233 -0.00803089 -0.04193466  0.99903382]
1717188581.036412,-1.8533333333333335,-2.12,37.89333333333334,-1.2195121951219514,-0.1829268292682927,0.06097560975609757,0.017595307917888565,0.017595307917888565,0.020527859237536656,0.02346041055718475,0.01466275659824047,0.017595307917888565,42.3,-83.7,0.3,[0 0 1],[-0.04877473 -0.05579268 -0.99725032],0,0,0.0,0.0,-0.0,[0 0 0 1],[-0.0029853   0.00248705 -0.02904277  0.99957062]
1717188581.0623913,-1.8533333333333335,-2.106666666666667,37.89333333333334,-1.9512195121951221,0.1829268292682927,0.9146341463414634,0.017595307917888565,0.01466275659824047,0.020527859237536656,0.02346041055718475,0.01466275659824047,0.017595307917888565,42.3,-83.7,0.3,[0 0 1],[-0.04877569 -0.05544287 -0.99726978],0,0,0.0,0.0,-0.0,[0 0 0 1],[-0.01713344 -0.0034122  -0.0402056   0.99903869]
1717188581.0894,-1.84,-2.0933333333333333,37.86666666666667,-1.0975609756097562,-0.30487804878048785,-0.12195121951219513,0.017595307917888565,0.017595307917888565,0.020527859237536656,0.02346041055718475,0.011730205278592375,0.017595307917888565,42.3,-83.7,0.3,[0 0 1],[-0.04846047 -0.05513256 -0.99730235],0,0,0.0,0.0,-0.0,[0 0 0 1],[-4.73856162e-04  5.72180274e-03 -2.64814508e-02  9.99632817e-01]
