Time,MagX,MagY,MagZ,GyroX,GyroY,GyroZ,Tri11,Tri12,Tri13,Tri21,Tri22,Tri23,Lat,Lon,Alt,SunVect,MagVect,MagRef,SunRef,Roll,Pitch,Yaw,static_q,dynamic_q
1717188549.2059317,-2.2,-2.2800000000000002,38.36,-8.841463414634147,0.5487804878048781,0.9146341463414634,0.017595307917888565,0.017595307917888565,0.020527859237536656,0.02346041055718475,0.011730205278592375,0.017595307917888565,42.3,-83.7,0.3,[0 0 1],[-0.05715678 -0.05923521 -0.99660639],0,0,0.0,0.0,-0.0,[0 0 0 1],[ 0.11488995 -0.13299693  0.00825498  0.98440031]
1717188549.2248294,-2.2,-2.2800000000000002,38.36,-1.1585365853658538,-0.24390243902439027,0.06097560975609757,0.017595307917888565,0.01466275659824047,0.020527859237536656,0.02346041055718475,0.011730205278592375,0.017595307917888565,42.3,-83.7,0.3,[0 0 1],[-0.05715678 -0.05923521 -0.99660639],0,0,0.0,0.0,-0.0,[0 0 0 1],[ 0.01260787 -0.0172101  -0.02079174  0.99955618]
1717188549.2521517,-1.84,-2.48,38.17333333333334,-1.402439024390244,0.12195121951219513,0.3658536585365854,0.017595307917888565,0.017595307917888565,0.020527859237536656,0.02346041055718475,0.011730205278592375,0.017595307917888565,42.3,-83.7,0.3,[0 0 1],[-0.04804424 -0.06475528 -0.99674395],0,0,0.0,0.0,-0.0,[0 0 0 1],[-0.00547539 -0.00524274 -0.02921722  0.99954434]
1717188549.2821333,-1.84,-2.44,38.17333333333334,-1.5853658536585367,0.06097560975609757,0.3658536585365854,0.017595307917888565,0.01466275659824047,0.020527859237536656,0.02346041055718475,0.011730205278592375,0.017595307917888565,42.3,-83.7,0.3,[0 0 1],[-0.04804747 -0.06371512 -0.99681083],0,0,0.0,0.0,-0.0,[0 0 0 1],[-0.007763   -0.00193119 -0.03386567  0.99939438]
1717188549.3068106,-1.76,-2.226666666666667,38.38666666666667,-2.073170731707317,-0.24390243902439027,0.48780487804878053,0.017595307917888565,0.01466275659824047,0.020527859237536656,0.02346041055718475,0.011730205278592375,0.017595307917888565,42.3,-83.7,0.3,[0 0 1],[-0.04572444 -0.05784834 -0.99727772],0,0,0.0,0.0,-0.0,[0 0 0 1],[-0.01034291  0.0042288  -0.04306401  0.99900983]
1717188549.3340313,-2.026666666666667,-2.546666666666667,38.266666666666666,-1.6463414634146343,-0.12195121951219513,0.48780487804878053,0.017595307917888565,0.017595307917888565,0.020527859237536656,0.02346041055718475,0.011730205278592375,0.017595307917888565,42.3,-83.7,0.3,[0 0 1],[-0.05277115 -0.06631111 -0.99640255],0,0,0.0,0.0,-0.0,[0 0 0 1],[-0.01056783  0.00281038 -0.03695552  0.99925708]
1717188549.3611052,-2.0,-2.56,38.266666666666666,-1.3414634146341464,0.12195121951219513,0.24390243902439027,0.017595307917888565,0.01466275659824047,0.020527859237536656,0.02346041055718475,0.01466275659824047,0.017595307917888565,42.3,-83.7,0.3,[0 0 1],[-0.05207748 -0.06665918 -0.99641582],0,0,0.0,0.0,-0.0,[0 0 0 1],[-0.0059618  -0.00179581 -0.03063692  0.99951119]
1717188549.3878703,-1.6933333333333334,-2.44,38.45333333333333,-1.5853658536585367,0.0,0.1829268292682927,0.017595307917888565,0.017595307917888565,0.020527859237536656,0.02346041055718475,0.011730205278592375,0.017595307917888565,42.3,-83.7,0.3,[0 0 1],[-0.0439053  -0.06326511 -0.99703052],0,0,0.0,0.0,-0.0,[0 0 0 1],[-4.33859349e-03 -1.85173720e-04 -3.41177989e-02  9.99408384e-01]
1717188549.415054,-1.6533333333333335,-2.3333333333333335,38.400000000000006,-1.707317073170732,0.0,0.6097560975609757,0.017595307917888565,0.01466275659824047,0.020527859237536656,0.02346041055718475,0.011730205278592375,0.017595307917888565,42.3,-83.7,0.3,[0 0 1],[-0.04293666 -0.06059609 -0.99723847],0,0,0.0,0.0,-0.0,[0 0 0 1],[-1.20008957e-02 -2.76486798e-04 -3.67163986e-02  9.99253626e-01]
1717188549.4419086,-1.6266666666666667,-2.4000000000000004,38.53333333333334,-1.5853658536585367,-0.12195121951219513,0.48780487804878053,0.017595307917888565,0.01466275659824047,0.020527859237536656,0.02346041055718475,0.011730205278592375,0.017595307917888565,42.3,-83.7,0.3,[0 0 1],[-0.04209554 -0.06210818 -0.9971813 ],0,0,0.0,0.0,-0.0,[0 0 0 1],[-0.01094406  0.0022649  -0.03491159  0.99932791]
1717188549.4689193,-1.7066666666666668,-2.4000000000000004,38.56,-1.2804878048780488,-0.24390243902439027,0.06097560975609757,0.017595307917888565,0.01466275659824047,0.020527859237536656,0.02346041055718475,0.011730205278592375,0.017595307917888565,42.3,-83.7,0.3,[0 0 1],[-0.04413151 -0.06205993 -0.99709627],0,0,0.0,0.0,-0.0,[0 0 0 1],[-0.00283438  0.00515239 -0.02914365  0.99955794]
1717188549.5061703,-2.2133333333333334,-2.24,38.18666666666667,-1.6463414634146343,0.12195121951219513,0.48780487804878053,0.017595307917888565,0.017595307917888565,0.020527859237536656,0.02346041055718475,0.01466275659824047,0.017595307917888565,42.3,-83.7,0.3,[0 0 1],[-0.05776482 -0.05846078 -0.99661706],0,0,0.0,0.0,-0.0,[0 0 0 1],[-0.0093014  -0.00172287 -0.03500299  0.99934244]
1717188549.532137,-2.2133333333333334,-2.4933333333333336,38.18666666666667,-1.3414634146341464,0.06097560975609757,0.24390243902439027,0.017595307917888565,0.01466275659824047,0.020527859237536656,0.02346041055718475,0.01466275659824047,0.017595307917888565,42.3,-83.7,0.3,[0 0 1],[-0.05774124 -0.06504585 -0.99621031],0,0,0.0,0.0,-0.0,[0 0 0 1],[-0.00593939 -0.00132294 -0.03032434  0.99952159]
1717188549.5500145,-2.2133333333333334,-2.4933333333333336,38.17333333333334,-1.6463414634146343,0.12195121951219513,0.1829268292682927,0.017595307917888565,0.017595307917888565,0.020527859237536656,0.02346041055718475,0.011730205278592375,0.017595307917888565,42.3,-83.7,0.3,[0 0 1],[-0.05776126 -0.0650684  -0.99620768],0,0,0.0,0.0,-0.0,[0 0 0 1],[-0.00424709 -0.0023938  -0.03517922  0.99936913]
1717188549.576969,-1.7200000000000002,-2.4133333333333336,38.46666666666667,-1.6463414634146343,-0.1829268292682927,0.0,0.017595307917888565,0.01466275659824047,0.020527859237536656,0.02346041055718475,0.011730205278592375,0.017595307917888565,42.3,-83.7,0.3,[0 0 1],[-0.04458193 -0.06255294 -0.99704543],0,0,0.0,0.0,-0.0,[0 0 0 1],[-8.02343965e-04  3.21430368e-03 -3.58537915e-02  9.99351555e-01]
1717188549.6039479,-2.12,-2.3200000000000003,38.413333333333334,-2.0121951219512195,0.12195121951219513,0.9756097560975611,0.017595307917888565,0.017595307917888565,0.020527859237536656,0.02346041055718475,0.011730205278592375,0.017595307917888565,42.3,-83.7,0.3,[0 0 1],[-0.05500539 -0.06019458 -0.99666997],0,0,0.0,0.0,-0.0,[0 0 0 1],[-0.0178976  -0.00241066 -0.04220404  0.99894579]
1717188549.631074,-2.226666666666667,-2.3866666666666667,38.36,-1.2195121951219514,-0.06097560975609757,0.1829268292682927,0.017595307917888565,0.01466275659824047,0.020527859237536656,0.02346041055718475,0.011730205278592375,0.017595307917888565,42.3,-83.7,0.3,[0 0 1],[-0.05783757 -0.06199356 -0.99639932],0,0,0.0,0.0,-0.0,[0 0 0 1],[-0.00614366  0.00107023 -0.02909828  0.9995571 ]
1717188549.657945,-2.24,-2.3466666666666667,38.25333333333334,-1.6463414634146343,-0.06097560975609757,0.30487804878048785,0.017595307917888565,0.01466275659824047,0.020527859237536656,0.02346041055718475,0.011730205278592375,0.017595307917888565,42.3,-83.7,0.3,[0 0 1],[-0.05834754 -0.061126   -0.99642319],0,0,0.0,0.0,-0.0,[0 0 0 1],[-0.00658654  0.00131787 -0.03498188  0.99936537]
1717188549.6850624,-2.186666666666667,-2.16,38.24,-1.5853658536585367,0.12195121951219513,0.30487804878048785,0.017595307917888565,0.01466275659824047,0.020527859237536656,0.02346041055718475,0.011730205278592375,0.017595307917888565,42.3,-83.7,0.3,[0 0 1],[-0.05699888 -0.05630377 -0.99678534],0,0,0.0,0.0,-0.0,[0 0 0 1],[-0.00653921 -0.00210133 -0.0347512   0.99937239]
1717188549.7130454,-2.1333333333333333,-2.2533333333333334,38.13333333333333,-1.7682926829268295,0.30487804878048785,0.5487804878048781,0.017595307917888565,0.017595307917888565,0.020527859237536656,0.02346041055718475,0.01466275659824047,0.017595307917888565,42.3,-83.7,0.3,[0 0 1],[-0.05575975 -0.05889624 -0.99670561],0,0,0.0,0.0,-0.0,[0 0 0 1],[-0.01102484 -0.00611804 -0.03790079  0.99920196]
1717188549.7391927,-2.1333333333333333,-2.2533333333333334,38.57333333333334,-1.0975609756097562,-0.426829268292683,-0.12195121951219513,0.017595307917888565,0.01466275659824047,0.020527859237536656,0.02346041055718475,0.011730205278592375,0.017595307917888565,42.3,-83.7,0.3,[0 0 1],[-0.05512782 -0.05822876 -0.99677998],0,0,0.0,0.0,-0.0,[0 0 0 1],[ 2.79174059e-04  7.50067956e-03 -2.61485313e-02  9.99629890e-01]
1717188549.766221,-2.44,-2.12,38.17333333333334,-1.524390243902439,-0.24390243902439027,0.0,0.017595307917888565,0.017595307917888565,0.020527859237536656,0.02346041055718475,0.011730205278592375,0.017595307917888565,42.3,-83.7,0.3,[0 0 1],[-0.06369104 -0.05533812 -0.99643421],0,0,0.0,0.0,-0.0,[0 0 0 1],[ 1.35025633e-04  5.64772037e-03 -3.23753956e-02  9.99459813e-01]
1717188549.7988882,-2.066666666666667,-2.226666666666667,38.34666666666667,-1.6463414634146343,-0.1829268292682927,0.3658536585365854,0.017595307917888565,0.01466275659824047,0.020527859237536656,0.02346041055718475,0.01466275659824047,0.017595307917888565,42.3,-83.7,0.3,[0 0 1],[-0.05372596 -0.05788539 -0.99687652],0,0,0.0,0.0,-0.0,[0 0 0 1],[-0.0067629   0.00400434 -0.03547268  0.99933974]
1717188549.8203084,-2.16,-2.186666666666667,38.52,-1.9512195121951221,0.426829268292683,0.6097560975609757,0.017595307917888565,0.017595307917888565,0.020527859237536656,0.02346041055718475,0.011730205278592375,0.017595307917888565,42.3,-83.7,0.3,[0 0 1],[-0.0558971  -0.05658719 -0.99683168],0,0,0.0,0.0,-0.0,[0 0 0 1],[-0.01182332 -0.00749361 -0.04125201  0.99905071]
1717188549.8513865,-2.146666666666667,-2.4266666666666667,38.46666666666667,-1.7682926829268295,-0.1829268292682927,0.426829268292683,0.017595307917888565,0.017595307917888565,0.020527859237536656,0.02346041055718475,0.011730205278592375,0.017595307917888565,42.3,-83.7,0.3,[0 0 1],[-0.055609   -0.06286234 -0.99647176],0,0,0.0,0.0,-0.0,[0 0 0 1],[-0.01003365  0.00240458 -0.03875752  0.99919538]
1717188549.878201,-1.9733333333333334,-2.3200000000000003,37.973333333333336,-1.402439024390244,-0.1829268292682927,0.1829268292682927,0.017595307917888565,0.017595307917888565,0.020527859237536656,0.02346041055718475,0.011730205278592375,0.017595307917888565,42.3,-83.7,0.3,[0 0 1],[-0.05179994 -0.06089993 -0.99679886],0,0,0.0,0.0,-0.0,[0 0 0 1],[-0.00495652  0.00392042 -0.03194577  0.99946962]
1717188549.9025545,-1.9333333333333333,-2.506666666666667,37.973333333333336,-2.0121951219512195,0.30487804878048785,0.9146341463414634,0.017595307917888565,0.017595307917888565,0.020527859237536656,0.02346041055718475,0.011730205278592375,0.017595307917888565,42.3,-83.7,0.3,[0 0 1],[-0.05073693 -0.06578305 -0.9965432 ],0,0,0.0,0.0,-0.0,[0 0 0 1],[-0.01723848 -0.00542439 -0.04169913  0.99896676]
1717188549.9286017,-2.1333333333333333,-2.4133333333333336,37.906666666666666,-1.707317073170732,-0.1829268292682927,0.24390243902439027,0.017595307917888565,0.01466275659824047,0.020527859237536656,0.02346041055718475,0.011730205278592375,0.017595307917888565,42.3,-83.7,0.3,[0 0 1],[-0.05607649 -0.06343653 -0.99640917],0,0,0.0,0.0,-0.0,[0 0 0 1],[-0.00733835  0.00300434 -0.03778727  0.99925434]
1717188549.9581091,-2.1733333333333333,-2.506666666666667,38.06666666666667,-1.5853658536585367,-0.06097560975609757,0.1829268292682927,0.017595307917888565,0.01466275659824047,0.020527859237536656,0.02346041055718475,0.01466275659824047,0.017595307917888565,42.3,-83.7,0.3,[0 0 1],[-0.05687722 -0.06560072 -0.99622363],0,0,0.0,0.0,-0.0,[0 0 0 1],[-0.00443629  0.00166278 -0.03514981  0.99937082]
1717188549.9825091,-2.066666666666667,-2.48,37.93333333333334,-1.3414634146341464,-0.30487804878048785,0.12195121951219513,0.017595307917888565,0.01466275659824047,0.020527859237536656,0.02346041055718475,0.011730205278592375,0.017595307917888565,42.3,-83.7,0.3,[0 0 1],[-0.05428532 -0.06514238 -0.9963983 ],0,0,0.0,0.0,-0.0,[0 0 0 1],[-0.00309616  0.00601444 -0.03031123  0.99951762]
1717188550.0101814,-2.0533333333333337,-2.48,37.973333333333336,-1.9512195121951221,0.0,0.5487804878048781,0.017595307917888565,0.01466275659824047,0.020527859237536656,0.02346041055718475,0.011730205278592375,0.017595307917888565,42.3,-83.7,0.3,[0 0 1],[-0.05387971 -0.06507549 -0.99642469],0,0,0.0,0.0,-0.0,[0 0 0 1],[-1.04013623e-02  6.55968435e-04 -4.05545314e-02  9.99122971e-01]
1717188550.0366323,-1.9866666666666668,-2.4933333333333336,37.906666666666666,-2.073170731707317,0.12195121951219513,0.3658536585365854,0.017595307917888565,0.017595307917888565,0.020527859237536656,0.02346041055718475,0.011730205278592375,0.017595307917888565,42.3,-83.7,0.3,[0 0 1],[-0.05222505 -0.06554419 -0.99648206],0,0,0.0,0.0,-0.0,[0 0 0 1],[-0.00812613 -0.00203968 -0.04413649  0.99899038]
1717188550.0634766,-2.0,-2.52,38.02666666666667,-1.2195121951219514,-0.24390243902439027,0.06097560975609757,0.017595307917888565,0.01466275659824047,0.020527859237536656,0.02346041055718475,0.011730205278592375,0.017595307917888565,42.3,-83.7,0.3,[0 0 1],[-0.05240744 -0.06603338 -0.99644019],0,0,0.0,0.0,-0.0,[0 0 0 1],[-0.00257517  0.00444777 -0.02936138  0.99955565]
1717188550.090704,-1.9466666666666668,-2.506666666666667,37.94666666666667,-1.707317073170732,0.1829268292682927,0.6707317073170732,0.017595307917888565,0.01466275659824047,0.020527859237536656,0.02346041055718475,0.011730205278592375,0.017595307917888565,42.3,-83.7,0.3,[0 0 1],[-0.05112158 -0.06582778 -0.99652059],0,0,0.0,0.0,-0.0,[0 0 0 1],[-0.01262875 -0.00306183 -0.03607448  0.99926462]
1717188550.11759,-1.9600000000000002,-2.52,37.92,-1.707317073170732,-0.06097560975609757,0.30487804878048785,0.017595307917888565,0.01466275659824047,0.020527859237536656,0.02346041055718475,0.01466275659824047,0.017595307917888565,42.3,-83.7,0.3,[0 0 1],[-0.05150555 -0.06622142 -0.99647474],0,0,0.0,0.0,-0.0,[0 0 0 1],[-7.64235505e-03  8.99945884e-04 -3.70370872e-02  9.99284263e-01]
1717188550.1446006,-1.8933333333333335,-2.4533333333333336,38.10666666666667,-1.5853658536585367,-0.06097560975609757,0.12195121951219513,0.017595307917888565,0.017595307917888565,0.020527859237536656,0.02346041055718475,0.011730205278592375,0.017595307917888565,42.3,-83.7,0.3,[0 0 1],[-0.04952161 -0.06416885 -0.99670957],0,0,0.0,0.0,-0.0,[0 0 0 1],[-0.00339853  0.00141531 -0.03503816  0.99937919]
1717188550.171908,-1.8666666666666667,-2.3733333333333335,38.10666666666667,-1.1585365853658538,-0.12195121951219513,-0.12195121951219513,0.017595307917888565,0.01466275659824047,0.020527859237536656,0.02346041055718475,0.011730205278592375,0.017595307917888565,42.3,-83.7,0.3,[0 0 1],[-0.04883225 -0.06208671 -0.99687544],0,0,0.0,0.0,-0.0,[0 0 0 1],[ 0.0017652   0.00266611 -0.02696169  0.99963135]
1717188550.198637,-1.9600000000000002,-2.3600000000000003,38.2,-1.707317073170732,0.0,0.7926829268292683,0.017595307917888565,0.01466275659824047,0.020527859237536656,0.02346041055718475,0.011730205278592375,0.017595307917888565,42.3,-83.7,0.3,[0 0 1],[-0.05114424 -0.06158184 -0.99679082],0,0,0.0,0.0,-0.0,[0 0 0 1],[-1.44254216e-02 -7.49404475e-05 -3.56692827e-02  9.99259528e-01]
1717188550.2264218,-2.2933333333333334,-2.2533333333333334,38.093333333333334,-1.402439024390244,0.24390243902439027,0.30487804878048785,0.017595307917888565,0.017595307917888565,0.020527859237536656,0.02346041055718475,0.01466275659824047,0.017595307917888565,42.3,-83.7,0.3,[0 0 1],[-0.05998972 -0.05894339 -0.99645718],0,0,0.0,0.0,-0.0,[0 0 0 1],[-0.00764704 -0.00442252 -0.03157431  0.99946237]
1717188550.252879,-1.9466666666666668,-2.3466666666666667,37.94666666666667,-1.524390243902439,-0.12195121951219513,0.48780487804878053,0.017595307917888565,0.01466275659824047,0.020527859237536656,0.02346041055718475,0.011730205278592375,0.017595307917888565,42.3,-83.7,0.3,[0 0 1],[-0.05113527 -0.06164252 -0.99678753],0,0,0.0,0.0,-0.0,[0 0 0 1],[-0.01044103  0.00158269 -0.03304934  0.99939793]
1717188550.279891,-1.9866666666666668,-2.2533333333333334,38.080000000000005,-1.402439024390244,-0.24390243902439027,0.24390243902439027,0.017595307917888565,0.017595307917888565,0.020527859237536656,0.02346041055718475,0.011730205278592375,0.017595307917888565,42.3,-83.7,0.3,[0 0 1],[-0.05200928 -0.0589904  -0.99690279],0,0,0.0,0.0,-0.0,[0 0 0 1],[-0.00620048  0.00494065 -0.03109925  0.99948486]
1717188550.309848,-2.2133333333333334,-2.2933333333333334,38.06666666666667,-1.5853658536585367,-0.06097560975609757,0.30487804878048785,0.017595307917888565,0.017595307917888565,0.020527859237536656,0.02346041055718475,0.011730205278592375,0.017595307917888565,42.3,-83.7,0.3,[0 0 1],[-0.05794087 -0.06003512 -0.99651324],0,0,0.0,0.0,-0.0,[0 0 0 1],[-0.00649226  0.00185738 -0.03419615  0.99939233]
1717188550.3340967,-2.2800000000000002,-2.3200000000000003,38.04,-1.7682926829268295,0.06097560975609757,0.24390243902439027,0.017595307917888565,0.01466275659824047,0.020527859237536656,0.02346041055718475,0.011730205278592375,0.017595307917888565,42.3,-83.7,0.3,[0 0 1],[-0.05971897 -0.06076667 -0.99636392],0,0,0.0,0.0,-0.0,[0 0 0 1],[-5.37973988e-03 -8.14752367e-04 -3.79094803e-02  9.99266364e-01]
1717188550.36119,-2.2133333333333334,-2.2533333333333334,38.093333333333334,-1.5853658536585367,-0.1829268292682927,0.30487804878048785,0.017595307917888565,0.017595307917888565,0.020527859237536656,0.02346041055718475,0.011730205278592375,0.017595307917888565,42.3,-83.7,0.3,[0 0 1],[-0.0579042  -0.05895066 -0.99658011],0,0,0.0,0.0,-0.0,[0 0 0 1],[-0.00663891  0.00325486 -0.03512008  0.99935575]
1717188550.388072,-2.186666666666667,-2.2800000000000002,38.093333333333334,-1.707317073170732,-0.06097560975609757,0.48780487804878053,0.017595307917888565,0.01466275659824047,0.020527859237536656,0.02346041055718475,0.011730205278592375,0.017595307917888565,42.3,-83.7,0.3,[0 0 1],[-0.05720649 -0.05964823 -0.9965789 ],0,0,0.0,0.0,-0.0,[0 0 0 1],[-0.0099932   0.0014949  -0.03691781  0.99926722]
1717188550.4153423,-2.186666666666667,-2.2800000000000002,38.160000000000004,-1.3414634146341464,-0.24390243902439027,0.30487804878048785,0.017595307917888565,0.01466275659824047,0.020527859237536656,0.02346041055718475,0.011730205278592375,0.017595307917888565,42.3,-83.7,0.3,[0 0 1],[-0.05710723 -0.05954473 -0.99659078],0,0,0.0,0.0,-0.0,[0 0 0 1],[-0.00731208  0.00484907 -0.03054029  0.99949503]
1717188550.4420164,-2.2533333333333334,-2.2533333333333334,38.17333333333334,-1.5853658536585367,-0.1829268292682927,0.12195121951219513,0.017595307917888565,0.01466275659824047,0.020527859237536656,0.02346041055718475,0.011730205278592375,0.017595307917888565,42.3,-83.7,0.3,[0 0 1],[-0.05882438 -0.05882438 -0.99653368],0,0,0.0,0.0,-0.0,[0 0 0 1],[-0.00329532  0.00427287 -0.03409234  0.99940412]
1717188550.4772863,-2.0933333333333333,-2.2533333333333334,38.32,-1.402439024390244,-0.30487804878048785,0.1829268292682927,0.017595307917888565,0.017595307917888565,0.020527859237536656,0.02346041055718475,0.011730205278592375,0.017595307917888565,42.3,-83.7,0.3,[0 0 1],[-0.05445259 -0.05861457 -0.99679449],0,0,0.0,0.0,-0.0,[0 0 0 1],[-0.00399841  0.00632018 -0.03128437  0.99948254]
1717188550.505405,-2.026666666666667,-2.2666666666666666,38.18666666666667,-1.0975609756097562,-0.426829268292683,0.06097560975609757,0.017595307917888565,0.017595307917888565,0.020527859237536656,0.02346041055718475,0.011730205278592375,0.017595307917888565,42.3,-83.7,0.3,[0 0 1],[-0.05290518 -0.05917027 -0.99684498],0,0,0.0,0.0,-0.0,[0 0 0 1],[-0.00185214  0.00903111 -0.0252493   0.99963868]
1717188550.5230339,-2.2666666666666666,-2.2666666666666666,38.24,-1.2804878048780488,-0.3658536585365854,0.0,0.017595307917888565,0.01466275659824047,0.020527859237536656,0.02346041055718475,0.011730205278592375,0.017595307917888565,42.3,-83.7,0.3,[0 0 1],[-0.05906759 -0.05906759 -0.99650491],0,0,0.0,0.0,-0.0,[0 0 0 1],[-2.22973741e-04  8.24532628e-03 -2.77729420e-02  9.99580226e-01]
1717188550.5502772,-2.16,-2.2,38.30666666666667,-1.7682926829268295,-0.12195121951219513,0.426829268292683,0.017595307917888565,0.01466275659824047,0.020527859237536656,0.02346041055718475,0.011730205278592375,0.017595307917888565,42.3,-83.7,0.3,[0 0 1],[-0.0562053  -0.05724614 -0.99677673],0,0,0.0,0.0,-0.0,[0 0 0 1],[-0.00778411  0.0032359  -0.03700542  0.99927951]
1717188550.5771773,-2.1733333333333333,-2.2533333333333334,38.24,-1.4634146341463417,-0.24390243902439027,0.0,0.017595307917888565,0.017595307917888565,0.020527859237536656,0.02346041055718475,0.011730205278592375,0.017595307917888565,42.3,-83.7,0.3,[0 0 1],[-0.05664452 -0.0587296  -0.99666556],0,0,0.0,0.0,-0.0,[0 0 0 1],[-0.00119921  0.00526453 -0.0327931   0.99944758]
1717188550.6041064,-2.0933333333333333,-2.2933333333333334,38.29333333333334,-1.829268292682927,0.1829268292682927,0.5487804878048781,0.017595307917888565,0.017595307917888565,0.020527859237536656,0.02346041055718475,0.011730205278592375,0.017595307917888565,42.3,-83.7,0.3,[0 0 1],[-0.05448691 -0.05969266 -0.99672863],0,0,0.0,0.0,-0.0,[0 0 0 1],[-0.01008981 -0.00294907 -0.03875461  0.99919346]
1717188550.6311572,-2.106666666666667,-2.2533333333333334,38.13333333333333,-1.2804878048780488,0.06097560975609757,0.12195121951219513,0.017595307917888565,0.01466275659824047,0.020527859237536656,0.02346041055718475,0.011730205278592375,0.017595307917888565,42.3,-83.7,0.3,[0 0 1],[-0.05506488 -0.05889852 -0.99674411],0,0,0.0,0.0,-0.0,[0 0 0 1],[-0.00378354 -0.00142135 -0.02975979  0.99954891]
1717188550.6582298,-2.106666666666667,-2.2666666666666666,38.21333333333334,-1.402439024390244,-0.12195121951219513,0.30487804878048785,0.017595307917888565,0.017595307917888565,0.020527859237536656,0.02346041055718475,0.011730205278592375,0.017595307917888565,42.3,-83.7,0.3,[0 0 1],[-0.05494923 -0.05912259 -0.99673723],0,0,0.0,0.0,-0.0,[0 0 0 1],[-0.00638693  0.00201953 -0.03065272  0.99950765]
1717188550.6852648,-2.026666666666667,-2.2666666666666666,38.10666666666667,-1.707317073170732,0.0,0.30487804878048785,0.017595307917888565,0.017595307917888565,0.020527859237536656,0.02346041055718475,0.01466275659824047,0.017595307917888565,42.3,-83.7,0.3,[0 0 1],[-0.05301555 -0.0592937  -0.99683179],0,0,0.0,0.0,-0.0,[0 0 0 1],[-6.54731953e-03  3.17654308e-04 -3.63070845e-02  9.99319182e-01]
1717188550.7121856,-2.0533333333333337,-2.226666666666667,38.2,-1.6463414634146343,-0.1829268292682927,0.1829268292682927,0.017595307917888565,0.017595307917888565,0.020527859237536656,0.02346041055718475,0.011730205278592375,0.017595307917888565,42.3,-83.7,0.3,[0 0 1],[-0.053584   -0.05810733 -0.99687125],0,0,0.0,0.0,-0.0,[0 0 0 1],[-0.00447672  0.0035481  -0.0360005   0.99933545]
1717188550.7400784,-1.9866666666666668,-2.2533333333333334,37.92,-2.073170731707317,-0.12195121951219513,0.6707317073170732,0.017595307917888565,0.01466275659824047,0.020527859237536656,0.02346041055718475,0.011730205278592375,0.017595307917888565,42.3,-83.7,0.3,[0 0 1],[-0.05222737 -0.05923775 -0.99687672],0,0,0.0,0.0,-0.0,[0 0 0 1],[-0.01296412  0.00247827 -0.0434025   0.99897048]
1717188550.7663019,-2.0133333333333336,-2.2666666666666666,37.94666666666667,-1.2804878048780488,0.0,0.30487804878048785,0.017595307917888565,0.01466275659824047,0.020527859237536656,0.02346041055718475,0.011730205278592375,0.017595307917888565,42.3,-83.7,0.3,[0 0 1],[-0.0528884  -0.05954323 -0.99682367],0,0,0.0,0.0,-0.0,[0 0 0 1],[-7.55947711e-03  4.20942935e-04 -3.04227893e-02  9.99508445e-01]
1717188550.7932446,-2.0533333333333337,-2.24,37.89333333333334,-1.829268292682927,0.0,0.5487804878048781,0.017595307917888565,0.01466275659824047,0.020527859237536656,0.02346041055718475,0.011730205278592375,0.017595307917888565,42.3,-83.7,0.3,[0 0 1],[-0.0540138  -0.05892414 -0.99680011],0,0,0.0,0.0,-0.0,[0 0 0 1],[-1.12739678e-02  6.47842099e-06 -3.83749890e-02  9.99199809e-01]
1717188550.8241005,-2.026666666666667,-2.2533333333333334,37.973333333333336,-1.2804878048780488,0.06097560975609757,0.06097560975609757,0.017595307917888565,0.01466275659824047,0.020527859237536656,0.02346041055718475,0.011730205278592375,0.017595307917888565,42.3,-83.7,0.3,[0 0 1],[-0.05320162 -0.0591518  -0.9968303 ],0,0,0.0,0.0,-0.0,[0 0 0 1],[-2.73279940e-03 -9.21366320e-04 -2.97151707e-02  9.99554246e-01]
1717188550.8473248,-2.04,-2.2666666666666666,37.973333333333336,-1.524390243902439,0.12195121951219513,0.5487804878048781,0.017595307917888565,0.01466275659824047,0.020527859237536656,0.02346041055718475,0.011730205278592375,0.017595307917888565,42.3,-83.7,0.3,[0 0 1],[-0.05354952 -0.05949946 -0.99679098],0,0,0.0,0.0,-0.0,[0 0 0 1],[-0.01063508 -0.00264523 -0.03282266  0.99940111]
1717188550.8749864,-2.026666666666667,-2.24,37.92,-1.402439024390244,0.12195121951219513,0.3658536585365854,0.017595307917888565,0.01466275659824047,0.020527859237536656,0.02346041055718475,0.01466275659824047,0.017595307917888565,42.3,-83.7,0.3,[0 0 1],[-0.05327707 -0.05888518 -0.99684206],0,0,0.0,0.0,-0.0,[0 0 0 1],[-0.00840581 -0.0026197  -0.03110736  0.99947727]
1717188550.9014773,-1.9866666666666668,-2.2533333333333334,37.89333333333334,-1.7682926829268295,0.0,0.48780487804878053,0.017595307917888565,0.01466275659824047,0.020527859237536656,0.02346041055718475,0.011730205278592375,0.017595307917888565,42.3,-83.7,0.3,[0 0 1],[-0.05226389 -0.05927918 -0.99687234],0,0,0.0,0.0,-0.0,[0 0 0 1],[-1.03805800e-02 -3.79095870e-04 -3.73831333e-02  9.99247017e-01]
1717188550.9302,-2.026666666666667,-2.2666666666666666,37.89333333333334,-1.524390243902439,0.0,0.30487804878048785,0.017595307917888565,0.017595307917888565,0.020527859237536656,0.02346041055718475,0.011730205278592375,0.01466275659824047,42.3,-83.7,0.3,[0 0 1],[-0.05331211 -0.05962539 -0.99679618],0,0,0.0,0.0,-0.0,[0 0 0 1],[-7.22318645e-03  2.87665556e-05 -3.39762150e-02  9.99396539e-01]
1717188550.955499,-1.9866666666666668,-2.2666666666666666,38.0,-1.8902439024390245,0.24390243902439027,0.5487804878048781,0.017595307917888565,0.017595307917888565,0.020527859237536656,0.02346041055718475,0.011730205278592375,0.017595307917888565,42.3,-83.7,0.3,[0 0 1],[-0.05211702 -0.05946237 -0.99686912],0,0,0.0,0.0,-0.0,[0 0 0 1],[-0.01106322 -0.00461888 -0.03996487  0.99912916]
1717188550.982503,-2.0,-2.2533333333333334,38.04,-1.7682926829268295,0.24390243902439027,0.48780487804878053,0.017595307917888565,0.017595307917888565,0.020527859237536656,0.02346041055718475,0.01466275659824047,0.017595307917888565,42.3,-83.7,0.3,[0 0 1],[-0.0524121  -0.05905096 -0.9968781 ],0,0,0.0,0.0,-0.0,[0 0 0 1],[-0.01063921 -0.00520303 -0.03866245  0.99918214]
1717188551.0094724,-2.04,-2.2666666666666666,38.13333333333333,-1.2195121951219514,-0.12195121951219513,-0.06097560975609757,0.017595307917888565,0.01466275659824047,0.020527859237536656,0.02346041055718475,0.011730205278592375,0.017595307917888565,42.3,-83.7,0.3,[0 0 1],[-0.05332626 -0.0592514  -0.99681773],0,0,0.0,0.0,-0.0,[0 0 0 1],[-5.93536488e-04  1.84229614e-03 -2.86017580e-02  9.99589012e-01]
1717188551.0365071,-1.9866666666666668,-2.2666666666666666,38.053333333333335,-1.9512195121951221,-0.06097560975609757,0.3658536585365854,0.017595307917888565,0.01466275659824047,0.020527859237536656,0.02346041055718475,0.011730205278592375,0.017595307917888565,42.3,-83.7,0.3,[0 0 1],[-0.05204443 -0.05937955 -0.99687785],0,0,0.0,0.0,-0.0,[0 0 0 1],[-0.00684444  0.00122097 -0.04030846  0.9991631 ]
1717188551.0635412,-2.04,-2.226666666666667,38.053333333333335,-1.524390243902439,-0.06097560975609757,0.30487804878048785,0.017595307917888565,0.017595307917888565,0.020527859237536656,0.02346041055718475,0.011730205278592375,0.017595307917888565,42.3,-83.7,0.3,[0 0 1],[-0.05344095 -0.05833097 -0.99686587],0,0,0.0,0.0,-0.0,[0 0 0 1],[-0.00671596  0.00128487 -0.0343962   0.99938488]
1717188551.0906472,-1.9866666666666668,-2.2666666666666666,38.10666666666667,-1.7682926829268295,0.24390243902439027,0.6707317073170732,0.017595307917888565,0.017595307917888565,0.020527859237536656,0.02346041055718475,0.011730205278592375,0.017595307917888565,42.3,-83.7,0.3,[0 0 1],[-0.05197204 -0.05929696 -0.99688654],0,0,0.0,0.0,-0.0,[0 0 0 1],[-0.01324025 -0.00456519 -0.03785016  0.99918528]
1717188551.1176233,-2.0133333333333336,-2.2666666666666666,38.160000000000004,-1.2804878048780488,0.24390243902439027,0.24390243902439027,0.017595307917888565,0.017595307917888565,0.020527859237536656,0.02346041055718475,0.011730205278592375,0.017595307917888565,42.3,-83.7,0.3,[0 0 1],[-0.05259458 -0.05921244 -0.99685891],0,0,0.0,0.0,-0.0,[0 0 0 1],[-0.00644417 -0.00511183 -0.02964339  0.99952669]
1717188551.1446493,-2.026666666666667,-2.2533333333333334,38.120000000000005,-1.402439024390244,-0.30487804878048785,0.48780487804878053,0.017595307917888565,0.017595307917888565,0.020527859237536656,0.02346041055718475,0.011730205278592375,0.017595307917888565,42.3,-83.7,0.3,[0 0 1],[-0.05299821 -0.05892564 -0.99685453],0,0,0.0,0.0,-0.0,[0 0 0 1],[-0.01039406  0.00489195 -0.0305192   0.99946816]
1717188551.1716232,-2.0,-2.2133333333333334,38.160000000000004,-1.829268292682927,-0.06097560975609757,0.3658536585365854,0.017595307917888565,0.017595307917888565,0.020527859237536656,0.02346041055718475,0.011730205278592375,0.017595307917888565,42.3,-83.7,0.3,[0 0 1],[-0.05225149 -0.05782498 -0.9969584 ],0,0,0.0,0.0,-0.0,[0 0 0 1],[-0.0081643   0.0019789  -0.03844945  0.99922523]
1717188551.1986306,-2.026666666666667,-2.2533333333333334,38.160000000000004,-1.8902439024390245,0.12195121951219513,0.6097560975609757,0.017595307917888565,0.017595307917888565,0.020527859237536656,0.02346041055718475,0.011730205278592375,0.017595307917888565,42.3,-83.7,0.3,[0 0 1],[-0.05294301 -0.05886426 -0.99686109],0,0,0.0,0.0,-0.0,[0 0 0 1],[-0.01232559 -0.00213268 -0.04060108  0.99909713]
1717188551.2257195,-1.9866666666666668,-2.24,38.160000000000004,-1.2195121951219514,-0.12195121951219513,0.12195121951219513,0.017595307917888565,0.017595307917888565,0.020527859237536656,0.02346041055718475,0.011730205278592375,0.017595307917888565,42.3,-83.7,0.3,[0 0 1],[-0.05190198 -0.05852036 -0.99693608],0,0,0.0,0.0,-0.0,[0 0 0 1],[-0.00422618  0.00218618 -0.02886516  0.99957199]
1717188551.253479,-2.0,-2.24,38.160000000000004,-1.5853658536585367,-0.12195121951219513,0.06097560975609757,0.017595307917888565,0.017595307917888565,0.020527859237536656,0.02346041055718475,0.011730205278592375,0.017595307917888565,42.3,-83.7,0.3,[0 0 1],[-0.05224937 -0.0585193  -0.996918  ],0,0,0.0,0.0,-0.0,[0 0 0 1],[-0.00175043  0.00269344 -0.03386623  0.99942121]
1717188551.2862058,-2.026666666666667,-2.2533333333333334,38.14666666666667,-1.4634146341463417,0.0,0.24390243902439027,0.017595307917888565,0.017595307917888565,0.020527859237536656,0.02346041055718475,0.011730205278592375,0.017595307917888565,42.3,-83.7,0.3,[0 0 1],[-0.0529614  -0.05888471 -0.99685891],0,0,0.0,0.0,-0.0,[0 0 0 1],[-4.76280560e-03  2.79785960e-04 -3.23908589e-02  9.99463891e-01]
1717188551.321583,-1.9866666666666668,-2.2800000000000002,38.17333333333334,-1.8902439024390245,0.12195121951219513,0.7926829268292683,0.017595307917888565,0.017595307917888565,0.020527859237536656,0.02346041055718475,0.011730205278592375,0.017595307917888565,42.3,-83.7,0.3,[0 0 1],[-0.05188077 -0.05954101 -0.99687675],0,0,0.0,0.0,-0.0,[0 0 0 1],[-0.01528558 -0.00253021 -0.03964272  0.99909379]
1717188551.3532126,-2.0133333333333336,-2.226666666666667,38.18666666666667,-1.7682926829268295,0.0,0.48780487804878053,0.017595307917888565,0.017595307917888565,0.020527859237536656,0.02346041055718475,0.011730205278592375,0.017595307917888565,42.3,-83.7,0.3,[0 0 1],[-0.0525613  -0.05813071 -0.99692433],0,0,0.0,0.0,-0.0,[0 0 0 1],[-1.13583850e-02 -2.17124805e-04 -3.86007873e-02  9.99190132e-01]
1717188551.3763113,-1.9866666666666668,-1.8533333333333335,38.14666666666667,-1.524390243902439,0.06097560975609757,0.30487804878048785,0.017595307917888565,0.017595307917888565,0.020527859237536656,0.02346041055718475,0.011730205278592375,0.017595307917888565,42.3,-83.7,0.3,[0 0 1],[-0.0519481  -0.04846165 -0.99747324],0,0,0.0,0.0,-0.0,[0 0 0 1],[-0.00731441 -0.00107151 -0.03416374  0.99938891]
1717188551.402256,-1.8533333333333335,-2.48,38.2,-1.5853658536585367,0.0,0.426829268292683,0.017595307917888565,0.017595307917888565,0.020527859237536656,0.02346041055718475,0.011730205278592375,0.017595307917888565,42.3,-83.7,0.3,[0 0 1],[-0.04835802 -0.06470929 -0.99673176],0,0,0.0,0.0,-0.0,[0 0 0 1],[-9.07578452e-03 -2.09397425e-04 -3.45848831e-02  9.99360532e-01]
1717188551.4252787,-2.026666666666667,-2.24,38.160000000000004,-1.1585365853658538,-0.06097560975609757,0.426829268292683,0.017595307917888565,0.01466275659824047,0.020527859237536656,0.02346041055718475,0.01466275659824047,0.017595307917888565,42.3,-83.7,0.3,[0 0 1],[-0.05294409 -0.05851715 -0.99688147],0,0,0.0,0.0,-0.0,[0 0 0 1],[-0.0094175   0.00104132 -0.02686555  0.99959415]
1717188551.4456012,-2.0133333333333336,-2.2933333333333334,38.17333333333334,-1.6463414634146343,0.12195121951219513,0.24390243902439027,0.017595307917888565,0.017595307917888565,0.020527859237536656,0.02346041055718475,0.011730205278592375,0.017595307917888565,42.3,-83.7,0.3,[0 0 1],[-0.05257415 -0.05988578 -0.99681977],0,0,0.0,0.0,-0.0,[0 0 0 1],[-0.0058204  -0.00196666 -0.03469429  0.99937909]
1717188551.4688902,-2.0,-2.2533333333333334,38.18666666666667,-1.707317073170732,0.06097560975609757,0.24390243902439027,0.017595307917888565,0.017595307917888565,0.020527859237536656,0.02346041055718475,0.01466275659824047,0.017595307917888565,42.3,-83.7,0.3,[0 0 1],[-0.05221204 -0.05882557 -0.99690193],0,0,0.0,0.0,-0.0,[0 0 0 1],[-0.00541544 -0.00139355 -0.03687875  0.9993041 ]
1717188551.4961047,-2.0,-2.226666666666667,38.17333333333334,-2.073170731707317,0.0,0.30487804878048785,0.017595307917888565,0.01466275659824047,0.020527859237536656,0.02346041055718475,0.011730205278592375,0.017595307917888565,42.3,-83.7,0.3,[0 0 1],[-0.05223229 -0.05815195 -0.99694039],0,0,0.0,0.0,-0.0,[0 0 0 1],[-6.46488087e-03 -1.97512255e-04 -4.35969194e-02  9.99028265e-01]
1717188551.5229151,-2.0,-2.2933333333333334,38.17333333333334,-1.524390243902439,0.12195121951219513,0.30487804878048785,0.017595307917888565,0.017595307917888565,0.020527859237536656,0.02346041055718475,0.011730205278592375,0.017595307917888565,42.3,-83.7,0.3,[0 0 1],[-0.05222693 -0.05988688 -0.99683796],0,0,0.0,0.0,-0.0,[0 0 0 1],[-0.00655539 -0.0023817  -0.0348792   0.9993672 ]
1717188551.5498786,-2.026666666666667,-2.226666666666667,38.160000000000004,-1.402439024390244,-0.24390243902439027,0.3658536585365854,0.017595307917888565,0.01466275659824047,0.020527859237536656,0.02346041055718475,0.011730205278592375,0.017595307917888565,42.3,-83.7,0.3,[0 0 1],[-0.05294517 -0.05817002 -0.99690173],0,0,0.0,0.0,-0.0,[0 0 0 1],[-0.00804506  0.00417723 -0.03133966  0.99946768]
1717188551.5768838,-2.0,-2.24,38.17333333333334,-1.829268292682927,0.12195121951219513,0.426829268292683,0.017595307917888565,0.017595307917888565,0.020527859237536656,0.02346041055718475,0.011730205278592375,0.017595307917888565,42.3,-83.7,0.3,[0 0 1],[-0.05223123 -0.05849898 -0.99692014],0,0,0.0,0.0,-0.0,[0 0 0 1],[-0.00888065 -0.00165175 -0.03858012  0.99921468]
1717188551.6038795,-2.0133333333333336,-2.24,38.17333333333334,-1.6463414634146343,-0.06097560975609757,0.6707317073170732,0.017595307917888565,0.017595307917888565,0.020527859237536656,0.02346041055718475,0.011730205278592375,0.017595307917888565,42.3,-83.7,0.3,[0 0 1],[-0.05257848 -0.05849791 -0.99690195],0,0,0.0,0.0,-0.0,[0 0 0 1],[-1.38868799e-02  6.92485794e-04 -3.62178522e-02  9.99247188e-01]
1717188551.6309316,-2.0133333333333336,-2.2800000000000002,38.160000000000004,-1.524390243902439,-0.30487804878048785,0.3658536585365854,0.017595307917888565,0.017595307917888565,0.020527859237536656,0.02346041055718475,0.011730205278592375,0.017595307917888565,42.3,-83.7,0.3,[0 0 1],[-0.05259349 -0.05955952 -0.9968383 ],0,0,0.0,0.0,-0.0,[0 0 0 1],[-0.00903891  0.00596532 -0.03370403  0.99937318]
1717188551.658078,-1.9866666666666668,-2.2533333333333334,38.17333333333334,-1.0975609756097562,0.06097560975609757,-0.30487804878048785,0.017595307917888565,0.01466275659824047,0.020527859237536656,0.02346041055718475,0.011730205278592375,0.017595307917888565,42.3,-83.7,0.3,[0 0 1],[-0.05188291 -0.05884705 -0.99691784],0,0,0.0,0.0,-0.0,[0 0 0 1],[ 4.62380625e-03  9.12549972e-05 -2.56133985e-02  9.99661226e-01]
1717188551.6850975,-2.04,-2.226666666666667,38.18666666666667,-2.0121951219512195,0.24390243902439027,1.0365853658536586,0.017595307917888565,0.01466275659824047,0.020527859237536656,0.02346041055718475,0.01466275659824047,0.017595307917888565,42.3,-83.7,0.3,[0 0 1],[-0.05325552 -0.05812857 -0.99688762],0,0,0.0,0.0,-0.0,[0 0 0 1],[-0.01831497 -0.00513778 -0.04062876  0.99899323]
1717188551.7120645,-2.0133333333333336,-2.2666666666666666,38.160000000000004,-1.6463414634146343,-0.06097560975609757,0.48780487804878053,0.017595307917888565,0.01466275659824047,0.020527859237536656,0.02346041055718475,0.011730205278592375,0.017595307917888565,42.3,-83.7,0.3,[0 0 1],[-0.05259458 -0.05921244 -0.99685891],0,0,0.0,0.0,-0.0,[0 0 0 1],[-1.19448335e-02  5.99118702e-04 -3.65264993e-02  9.99261115e-01]
1717188551.7390895,-2.0,-2.2133333333333334,38.160000000000004,-1.5853658536585367,-0.06097560975609757,0.30487804878048785,0.017595307917888565,0.017595307917888565,0.020527859237536656,0.02346041055718475,0.011730205278592375,0.017595307917888565,42.3,-83.7,0.3,[0 0 1],[-0.05225149 -0.05782498 -0.9969584 ],0,0,0.0,0.0,-0.0,[0 0 0 1],[-0.0074506   0.00137522 -0.0349422   0.99936062]
1717188551.7669845,-2.026666666666667,-2.24,38.17333333333334,-1.5853658536585367,0.0,0.0,0.017595307917888565,0.01466275659824047,0.020527859237536656,0.02346041055718475,0.011730205278592375,0.017595307917888565,42.3,-83.7,0.3,[0 0 1],[-0.05292571 -0.05849684 -0.99688364],0,0,0.0,0.0,-0.0,[0 0 0 1],[-1.02723042e-03  4.18874730e-04 -3.47487266e-02  9.99395465e-01]
1717188551.7932463,-2.0,-2.2800000000000002,38.160000000000004,-1.5853658536585367,-0.12195121951219513,0.30487804878048785,0.017595307917888565,0.01466275659824047,0.020527859237536656,0.02346041055718475,0.011730205278592375,0.017595307917888565,42.3,-83.7,0.3,[0 0 1],[-0.05224615 -0.05956061 -0.9968565 ],0,0,0.0,0.0,-0.0,[0 0 0 1],[-0.005929    0.00217778 -0.03469498  0.99937799]
1717188551.8203435,-1.9866666666666668,-2.2533333333333334,38.18666666666667,-1.524390243902439,0.06097560975609757,0.1829268292682927,0.017595307917888565,0.017595307917888565,0.020527859237536656,0.02346041055718475,0.011730205278592375,0.017595307917888565,42.3,-83.7,0.3,[0 0 1],[-0.0518649  -0.05882663 -0.99691999],0,0,0.0,0.0,-0.0,[0 0 0 1],[-4.18398808e-03 -7.81939278e-04 -3.36203164e-02  9.99425614e-01]
1717188551.8504744,-2.04,-2.2533333333333334,38.18666666666667,-1.6463414634146343,-0.12195121951219513,0.426829268292683,0.017595307917888565,0.01466275659824047,0.020527859237536656,0.02346041055718475,0.01466275659824047,0.017595307917888565,42.3,-83.7,0.3,[0 0 1],[-0.05325335 -0.05882233 -0.99684704],0,0,0.0,0.0,-0.0,[0 0 0 1],[-0.00868371  0.00202989 -0.03558882  0.99932673]
1717188551.8745568,-2.0133333333333336,-2.2666666666666666,38.17333333333334,-1.7682926829268295,0.0,0.30487804878048785,0.017595307917888565,0.017595307917888565,0.020527859237536656,0.02346041055718475,0.01466275659824047,0.017595307917888565,42.3,-83.7,0.3,[0 0 1],[-0.05257633 -0.05919189 -0.9968611 ],0,0,0.0,0.0,-0.0,[0 0 0 1],[-6.86273048e-03  3.73741750e-04 -3.80961672e-02  9.99250442e-01]
1717188551.9021022,-2.0533333333333337,-2.24,38.18666666666667,-1.8902439024390245,0.06097560975609757,0.6097560975609757,0.017595307917888565,0.01466275659824047,0.020527859237536656,0.02346041055718475,0.011730205278592375,0.017595307917888565,42.3,-83.7,0.3,[0 0 1],[-0.05360151 -0.05847437 -0.99684885],0,0,0.0,0.0,-0.0,[0 0 0 1],[-0.01224217 -0.00127001 -0.04052516  0.99910271]
1717188551.9284441,-2.0,-2.2666666666666666,38.18666666666667,-2.0121951219512195,-0.06097560975609757,0.6707317073170732,0.017595307917888565,0.01466275659824047,0.020527859237536656,0.02346041055718475,0.011730205278592375,0.017595307917888565,42.3,-83.7,0.3,[0 0 1],[-0.05221097 -0.05917243 -0.99688146],0,0,0.0,0.0,-0.0,[0 0 0 1],[-1.42338898e-02  9.01318150e-04 -4.29300906e-02  9.98976272e-01]
1717188551.955489,-2.0,-2.2800000000000002,38.18666666666667,-1.3414634146341464,-0.30487804878048785,0.06097560975609757,0.017595307917888565,0.01466275659824047,0.020527859237536656,0.02346041055718475,0.011730205278592375,0.017595307917888565,42.3,-83.7,0.3,[0 0 1],[-0.05220989 -0.05951928 -0.99686086],0,0,0.0,0.0,-0.0,[0 0 0 1],[-0.00342263  0.00618361 -0.03137177  0.9994828 ]
1717188551.9824367,-2.026666666666667,-2.24,38.14666666666667,-1.6463414634146343,0.06097560975609757,0.6707317073170732,0.017595307917888565,0.01466275659824047,0.020527859237536656,0.02346041055718475,0.011730205278592375,0.017595307917888565,42.3,-83.7,0.3,[0 0 1],[-0.05296248 -0.05853748 -0.9968793 ],0,0,0.0,0.0,-0.0,[0 0 0 1],[-1.27867761e-02 -5.44075854e-04 -3.52993730e-02  9.99294830e-01]
1717188552.009647,-2.0,-2.2800000000000002,38.18666666666667,-1.4634146341463417,0.12195121951219513,0.3658536585365854,0.017595307917888565,0.017595307917888565,0.020527859237536656,0.02346041055718475,0.011730205278592375,0.017595307917888565,42.3,-83.7,0.3,[0 0 1],[-0.05220989 -0.05951928 -0.99686086],0,0,0.0,0.0,-0.0,[0 0 0 1],[-0.0086439  -0.00226035 -0.03258932  0.99942889]
1717188552.0366297,-2.04,-2.24,38.14666666666667,-1.3414634146341464,-0.30487804878048785,0.1829268292682927,0.017595307917888565,0.017595307917888565,0.020527859237536656,0.02346041055718475,0.011730205278592375,0.017595307917888565,42.3,-83.7,0.3,[0 0 1],[-0.05330993 -0.05853639 -0.99686084],0,0,0.0,0.0,-0.0,[0 0 0 1],[-0.0049344   0.00552364 -0.02990225  0.99952539]
1717188552.063512,-1.9733333333333334,-2.226666666666667,38.17333333333334,-1.0365853658536586,-0.12195121951219513,-0.06097560975609757,0.017595307917888565,0.017595307917888565,0.020527859237536656,0.02346041055718475,0.011730205278592375,0.017595307917888565,42.3,-83.7,0.3,[0 0 1],[-0.05153773 -0.05815406 -0.99697641],0,0,0.0,0.0,-0.0,[0 0 0 1],[ 4.80368890e-04  3.24225091e-03 -2.39546381e-02  9.99707673e-01]
1717188552.0905824,-2.0,-2.2533333333333334,38.17333333333334,-1.7682926829268295,0.1829268292682927,0.48780487804878053,0.017595307917888565,0.017595307917888565,0.020527859237536656,0.02346041055718475,0.011730205278592375,0.017595307917888565,42.3,-83.7,0.3,[0 0 1],[-0.05223017 -0.05884599 -0.99689977],0,0,0.0,0.0,-0.0,[0 0 0 1],[-0.00883642 -0.00318201 -0.03640325  0.99929305]
1717188552.117582,-2.0133333333333336,-2.2666666666666666,38.13333333333333,-1.6463414634146343,0.0,0.30487804878048785,0.017595307917888565,0.01466275659824047,0.020527859237536656,0.02346041055718475,0.01466275659824047,0.017595307917888565,42.3,-83.7,0.3,[0 0 1],[-0.05263113 -0.05925359 -0.99685454],0,0,0.0,0.0,-0.0,[0 0 0 1],[-7.06996873e-03 -3.90677286e-04 -3.60109371e-02  9.99326311e-01]
1717188552.1446187,-1.9733333333333334,-2.226666666666667,38.18666666666667,-1.6463414634146343,-0.12195121951219513,0.48780487804878053,0.017595307917888565,0.01466275659824047,0.020527859237536656,0.02346041055718475,0.011730205278592375,0.017595307917888565,42.3,-83.7,0.3,[0 0 1],[-0.05151984 -0.05813387 -0.99697851],0,0,0.0,0.0,-0.0,[0 0 0 1],[-0.01022642  0.00211371 -0.03591295  0.99930036]
1717188552.171596,-1.9333333333333333,-2.2133333333333334,38.17333333333334,-1.707317073170732,0.06097560975609757,0.48780487804878053,0.017595307917888565,0.01466275659824047,0.020527859237536656,0.02346041055718475,0.011730205278592375,0.017595307917888565,42.3,-83.7,0.3,[0 0 1],[-0.05049675 -0.05781008 -0.99704968],0,0,0.0,0.0,-0.0,[0 0 0 1],[-1.04607255e-02 -8.38092315e-04 -3.70399181e-02  9.99258683e-01]
1717188552.1986432,-1.9866666666666668,-2.2533333333333334,38.14666666666667,-1.7682926829268295,0.1829268292682927,0.30487804878048785,0.017595307917888565,0.01466275659824047,0.020527859237536656,0.02346041055718475,0.011730205278592375,0.017595307917888565,42.3,-83.7,0.3,[0 0 1],[-0.05191895 -0.05888794 -0.99691355],0,0,0.0,0.0,-0.0,[0 0 0 1],[-0.00708276 -0.0033987  -0.03831352  0.99923489]
1717188552.2257316,-1.9866666666666668,-2.2533333333333334,38.17333333333334,-1.6463414634146343,-0.12195121951219513,0.3658536585365854,0.017595307917888565,0.017595307917888565,0.020527859237536656,0.02346041055718475,0.011730205278592375,0.017595307917888565,42.3,-83.7,0.3,[0 0 1],[-0.05188291 -0.05884705 -0.99691784],0,0,0.0,0.0,-0.0,[0 0 0 1],[-0.00805153  0.0017518  -0.03624844  0.99930884]
1717188552.252757,-2.0133333333333336,-2.24,38.14666666666667,-1.402439024390244,0.0,0.1829268292682927,0.017595307917888565,0.017595307917888565,0.020527859237536656,0.02346041055718475,0.011730205278592375,0.017595307917888565,42.3,-83.7,0.3,[0 0 1],[-0.05261501 -0.05853855 -0.99689764],0,0,0.0,0.0,-0.0,[0 0 0 1],[-4.55617150e-03  3.39882090e-04 -3.16251591e-02  9.99489357e-01]
1717188552.2806134,-1.9866666666666668,-2.2800000000000002,38.160000000000004,-2.1341463414634148,0.12195121951219513,0.7926829268292683,0.017595307917888565,0.01466275659824047,0.020527859237536656,0.02346041055718475,0.011730205278592375,0.017595307917888565,42.3,-83.7,0.3,[0 0 1],[-0.05189878 -0.05956169 -0.99687458],0,0,0.0,0.0,-0.0,[0 0 0 1],[-0.01515205 -0.00248031 -0.04376025  0.99892407]
1717188552.307005,-2.0133333333333336,-2.2133333333333334,38.2,-1.4634146341463417,-0.06097560975609757,0.1829268292682927,0.017595307917888565,0.01466275659824047,0.020527859237536656,0.02346041055718475,0.011730205278592375,0.017595307917888565,42.3,-83.7,0.3,[0 0 1],[-0.05254413 -0.05776375 -0.99694657],0,0,0.0,0.0,-0.0,[0 0 0 1],[-0.00573566  0.00105649 -0.03377704  0.99941238]
1717188552.3338962,-2.0133333333333336,-2.226666666666667,38.17333333333334,-1.524390243902439,0.24390243902439027,0.1829268292682927,0.017595307917888565,0.017595307917888565,0.020527859237536656,0.02346041055718475,0.011730205278592375,0.017595307917888565,42.3,-83.7,0.3,[0 0 1],[-0.05257955 -0.05815089 -0.9969222 ],0,0,0.0,0.0,-0.0,[0 0 0 1],[-0.00407166 -0.00437871 -0.03349071  0.99942114]
1717188552.3651433,-1.9866666666666668,-2.2666666666666666,38.18666666666667,-1.0365853658536586,-0.426829268292683,0.06097560975609757,0.017595307917888565,0.01466275659824047,0.020527859237536656,0.02346041055718475,0.011730205278592375,0.017595307917888565,42.3,-83.7,0.3,[0 0 1],[-0.05186384 -0.0591735  -0.99689951],0,0,0.0,0.0,-0.0,[0 0 0 1],[-0.00209945  0.00748564 -0.02442286  0.99967149]
1717188552.3879192,-2.04,-2.2133333333333334,38.18666666666667,-2.5,0.24390243902439027,0.853658536585366,0.017595307917888565,0.017595307917888565,0.020527859237536656,0.02346041055718475,0.01466275659824047,0.017595307917888565,42.3,-83.7,0.3,[0 0 1],[-0.05325659 -0.05778166 -0.99690773],0,0,0.0,0.0,-0.0,[0 0 0 1],[-0.01536464 -0.00367862 -0.0489748   0.99867505]
1717188552.4155586,-2.0133333333333336,-2.226666666666667,38.160000000000004,-1.0365853658536586,-0.1829268292682927,-0.06097560975609757,0.017595307917888565,0.01466275659824047,0.020527859237536656,0.02346041055718475,0.011730205278592375,0.017595307917888565,42.3,-83.7,0.3,[0 0 1],[-0.05259781 -0.05817109 -0.99692005],0,0,0.0,0.0,-0.0,[0 0 0 1],[-0.00131279  0.00329014 -0.02667522  0.99963788]
1717188552.453634,-2.0133333333333336,-2.2666666666666666,38.2,-1.6463414634146343,0.0,0.48780487804878053,0.017595307917888565,0.01466275659824047,0.020527859237536656,0.02346041055718475,0.011730205278592375,0.017595307917888565,42.3,-83.7,0.3,[0 0 1],[-0.05253985 -0.05915083 -0.99686546],0,0,0.0,0.0,-0.0,[0 0 0 1],[-9.20883612e-03  2.67118169e-04 -3.46303231e-02  9.99357727e-01]
1717188552.4813688,-2.0133333333333336,-2.2533333333333334,38.42666666666667,-1.4634146341463417,-0.1829268292682927,0.5487804878048781,0.017595307917888565,0.017595307917888565,0.020527859237536656,0.02346041055718475,0.011730205278592375,0.017595307917888565,42.3,-83.7,0.3,[0 0 1],[-0.05223292 -0.05845936 -0.99692238],0,0,0.0,0.0,-0.0,[0 0 0 1],[-0.01172934  0.0033669  -0.03239634  0.9994006 ]
1717188552.497161,-1.7333333333333334,-1.8666666666666667,38.18666666666667,-1.8902439024390245,0.3658536585365854,0.426829268292683,0.017595307917888565,0.01466275659824047,0.020527859237536656,0.02346041055718475,0.011730205278592375,0.017595307917888565,42.3,-83.7,0.3,[0 0 1],[-0.04529041 -0.04877428 -0.99778247],0,0,0.0,0.0,-0.0,[0 0 0 1],[-0.00925671 -0.00616396 -0.03982469  0.99914479]
1717188552.5231242,-2.0,-2.2533333333333334,38.18666666666667,-1.4634146341463417,-0.3658536585365854,0.1829268292682927,0.017595307917888565,0.01466275659824047,0.020527859237536656,0.02346041055718475,0.011730205278592375,0.017595307917888565,42.3,-83.7,0.3,[0 0 1],[-0.05221204 -0.05882557 -0.99690193],0,0,0.0,0.0,-0.0,[0 0 0 1],[-0.00520863  0.00610466 -0.03312144  0.99941912]
1717188552.5502148,-1.9866666666666668,-2.2666666666666666,38.17333333333334,-1.6463414634146343,0.12195121951219513,0.48780487804878053,0.017595307917888565,0.017595307917888565,0.020527859237536656,0.02346041055718475,0.011730205278592375,0.017595307917888565,42.3,-83.7,0.3,[0 0 1],[-0.05188184 -0.05919404 -0.99689736],0,0,0.0,0.0,-0.0,[0 0 0 1],[-0.0096023  -0.00154988 -0.03558612  0.99931928]
1717188552.5771654,-2.0133333333333336,-2.24,38.21333333333334,-1.524390243902439,-0.30487804878048785,0.30487804878048785,0.017595307917888565,0.017595307917888565,0.020527859237536656,0.02346041055718475,0.01466275659824047,0.017595307917888565,42.3,-83.7,0.3,[0 0 1],[-0.05252379 -0.05843706 -0.9969084 ],0,0,0.0,0.0,-0.0,[0 0 0 1],[-0.00734387  0.00556805 -0.033634    0.99939172]
1717188552.6042955,-2.026666666666667,-2.2533333333333334,38.18666666666667,-1.829268292682927,0.0,0.30487804878048785,0.017595307917888565,0.017595307917888565,0.020527859237536656,0.02346041055718475,0.01466275659824047,0.017595307917888565,42.3,-83.7,0.3,[0 0 1],[-0.05290627 -0.05882342 -0.99686545],0,0,0.0,0.0,-0.0,[0 0 0 1],[-6.53827747e-03  8.52386460e-04 -3.89155204e-02  9.99220750e-01]
1717188552.631238,-1.9866666666666668,-2.2533333333333334,38.18666666666667,-1.4634146341463417,-0.5487804878048781,0.0,0.017595307917888565,0.01466275659824047,0.020527859237536656,0.02346041055718475,0.011730205278592375,0.017595307917888565,42.3,-83.7,0.3,[0 0 1],[-0.0518649  -0.05882663 -0.99691999],0,0,0.0,0.0,-0.0,[0 0 0 1],[-0.00131555  0.01060065 -0.03297799  0.99939899]
1717188552.658341,-2.0133333333333336,-2.2533333333333334,38.18666666666667,-1.402439024390244,-0.12195121951219513,0.30487804878048785,0.017595307917888565,0.017595307917888565,0.020527859237536656,0.02346041055718475,0.011730205278592375,0.017595307917888565,42.3,-83.7,0.3,[0 0 1],[-0.05255916 -0.0588245  -0.99688375],0,0,0.0,0.0,-0.0,[0 0 0 1],[-0.00572177  0.00366455 -0.03118937  0.9994904 ]
1717188552.6865206,-2.0,-2.2933333333333334,38.17333333333334,-2.3170731707317076,0.5487804878048781,0.9146341463414634,0.017595307917888565,0.017595307917888565,0.020527859237536656,0.02346041055718475,0.011730205278592375,0.017595307917888565,42.3,-83.7,0.3,[0 0 1],[-0.05222693 -0.05988688 -0.99683796],0,0,0.0,0.0,-0.0,[0 0 0 1],[-0.01702186 -0.00978265 -0.04675314  0.99871352]
1717188552.7122908,-1.9866666666666668,-2.2666666666666666,38.18666666666667,-2.1341463414634148,0.48780487804878053,0.48780487804878053,0.017595307917888565,0.01466275659824047,0.020527859237536656,0.02346041055718475,0.011730205278592375,0.017595307917888565,42.3,-83.7,0.3,[0 0 1],[-0.05186384 -0.0591735  -0.99689951],0,0,0.0,0.0,-0.0,[0 0 0 1],[-0.01135606 -0.01012157 -0.04599626  0.99882578]
1717188552.7399719,-2.026666666666667,-2.2533333333333334,38.17333333333334,-1.6463414634146343,-0.24390243902439027,0.3658536585365854,0.017595307917888565,0.017595307917888565,0.020527859237536656,0.02346041055718475,0.011730205278592375,0.017595307917888565,42.3,-83.7,0.3,[0 0 1],[-0.05292463 -0.05884383 -0.99686327],0,0,0.0,0.0,-0.0,[0 0 0 1],[-0.00898915  0.00314927 -0.03725018  0.99926058]
1717188552.7663717,-1.9866666666666668,-2.3066666666666666,38.2,-1.6463414634146343,-0.1829268292682927,0.1829268292682927,0.017595307917888565,0.01466275659824047,0.020527859237536656,0.02346041055718475,0.011730205278592375,0.017595307917888565,42.3,-83.7,0.3,[0 0 1],[-0.05184262 -0.06019311 -0.99683957],0,0,0.0,0.0,-0.0,[0 0 0 1],[-0.00474208  0.00402541 -0.03613671  0.9993275 ]
1717188552.7942474,-1.9866666666666668,-2.2133333333333334,38.17333333333334,-1.8902439024390245,0.06097560975609757,0.48780487804878053,0.017595307917888565,0.017595307917888565,0.020527859237536656,0.02346041055718475,0.011730205278592375,0.017595307917888565,42.3,-83.7,0.3,[0 0 1],[-0.05188607 -0.05780595 -0.99697859],0,0,0.0,0.0,-0.0,[0 0 0 1],[-9.55897022e-03 -7.22733103e-04 -4.03135836e-02  9.99141090e-01]
1717188552.8204303,-2.026666666666667,-2.2666666666666666,38.17333333333334,-1.524390243902439,-0.1829268292682927,0.12195121951219513,0.017595307917888565,0.017595307917888565,0.020527859237536656,0.02346041055718475,0.011730205278592375,0.017595307917888565,42.3,-83.7,0.3,[0 0 1],[-0.05292354 -0.0591908  -0.99684279],0,0,0.0,0.0,-0.0,[0 0 0 1],[-0.00382109  0.0035124  -0.03437413  0.99939556]
1717188552.8478682,-1.9733333333333334,-2.2800000000000002,38.17333333333334,-1.5853658536585367,0.0,0.30487804878048785,0.017595307917888565,0.017595307917888565,0.020527859237536656,0.02346041055718475,0.011730205278592375,0.017595307917888565,42.3,-83.7,0.3,[0 0 1],[-0.0515335  -0.05954209 -0.9968947 ],0,0,0.0,0.0,-0.0,[0 0 0 1],[-6.15844354e-03  4.20267263e-04 -3.46651843e-02  9.99379919e-01]
1717188552.877645,-2.04,-2.226666666666667,38.17333333333334,-1.402439024390244,-0.1829268292682927,0.1829268292682927,0.017595307917888565,0.01466275659824047,0.020527859237536656,0.02346041055718475,0.011730205278592375,0.017595307917888565,42.3,-83.7,0.3,[0 0 1],[-0.053274   -0.05814875 -0.99688545],0,0,0.0,0.0,-0.0,[0 0 0 1],[-0.00443737  0.00354683 -0.03136424  0.99949188]
1717188552.9017162,-1.9866666666666668,-2.12,38.14666666666667,-1.524390243902439,0.06097560975609757,0.24390243902439027,0.017595307917888565,0.01466275659824047,0.020527859237536656,0.02346041055718475,0.011730205278592375,0.017595307917888565,42.3,-83.7,0.3,[0 0 1],[-0.05192929 -0.05541448 -0.99711212],0,0,0.0,0.0,-0.0,[0 0 0 1],[-5.07864924e-03 -6.52612724e-04 -3.31431578e-02  9.99437498e-01]
1717188552.9292223,-1.9866666666666668,-2.2533333333333334,38.17333333333334,-1.3414634146341464,0.0,0.7317073170731708,0.017595307917888565,0.017595307917888565,0.020527859237536656,0.02346041055718475,0.011730205278592375,0.017595307917888565,42.3,-83.7,0.3,[0 0 1],[-0.05188291 -0.05884705 -0.99691784],0,0,0.0,0.0,-0.0,[0 0 0 1],[-1.44882437e-02 -4.21378613e-04 -2.99433376e-02  9.99446502e-01]
1717188552.9555814,-2.0133333333333336,-2.226666666666667,38.18666666666667,-1.5853658536585367,0.24390243902439027,0.30487804878048785,0.017595307917888565,0.017595307917888565,0.020527859237536656,0.02346041055718475,0.011730205278592375,0.017595307917888565,42.3,-83.7,0.3,[0 0 1],[-0.0525613  -0.05813071 -0.99692433],0,0,0.0,0.0,-0.0,[0 0 0 1],[-0.00766321 -0.00437119 -0.03405888  0.99938089]
1717188552.982559,-1.9866666666666668,-2.2666666666666666,38.14666666666667,-2.25609756097561,0.1829268292682927,0.48780487804878053,0.017595307917888565,0.01466275659824047,0.020527859237536656,0.02346041055718475,0.01466275659824047,0.017595307917888565,42.3,-83.7,0.3,[0 0 1],[-0.05191788 -0.05923517 -0.99689304],0,0,0.0,0.0,-0.0,[0 0 0 1],[-0.01011627 -0.00396662 -0.04627073  0.99886983]
1717188553.0095885,-2.0133333333333336,-2.2666666666666666,38.2,-1.2804878048780488,-0.30487804878048785,0.0,0.017595307917888565,0.017595307917888565,0.020527859237536656,0.02346041055718475,0.011730205278592375,0.017595307917888565,42.3,-83.7,0.3,[0 0 1],[-0.05253985 -0.05915083 -0.99686546],0,0,0.0,0.0,-0.0,[0 0 0 1],[-0.00182093  0.00542196 -0.03076109  0.9995104 ]
1717188553.036785,-2.0,-2.2533333333333334,38.160000000000004,-1.6463414634146343,-0.24390243902439027,0.48780487804878053,0.017595307917888565,0.017595307917888565,0.020527859237536656,0.02346041055718475,0.01466275659824047,0.017595307917888565,42.3,-83.7,0.3,[0 0 1],[-0.0522483  -0.05886642 -0.99689762],0,0,0.0,0.0,-0.0,[0 0 0 1],[-0.00935239  0.00510939 -0.03521159  0.99932306]
1717188553.0635269,-2.0,-2.2666666666666666,38.18666666666667,-1.829268292682927,0.24390243902439027,0.30487804878048785,0.017595307917888565,0.01466275659824047,0.020527859237536656,0.02346041055718475,0.011730205278592375,0.017595307917888565,42.3,-83.7,0.3,[0 0 1],[-0.05221097 -0.05917243 -0.99688146],0,0,0.0,0.0,-0.0,[0 0 0 1],[-0.00667693 -0.00369744 -0.03916299  0.99920369]
1717188553.0906465,-2.026666666666667,-2.2800000000000002,38.17333333333334,-1.5853658536585367,-0.06097560975609757,0.5487804878048781,0.017595307917888565,0.01466275659824047,0.020527859237536656,0.02346041055718475,0.01466275659824047,0.017595307917888565,42.3,-83.7,0.3,[0 0 1],[-0.05292245 -0.05953776 -0.99682219],0,0,0.0,0.0,-0.0,[0 0 0 1],[-1.13818966e-02  4.08010745e-04 -3.52324585e-02  9.99314245e-01]
1717188553.117567,-1.9733333333333334,-2.2533333333333334,38.160000000000004,-1.524390243902439,-0.12195121951219513,0.3658536585365854,0.017595307917888565,0.017595307917888565,0.020527859237536656,0.02346041055718475,0.011730205278592375,0.017595307917888565,42.3,-83.7,0.3,[0 0 1],[-0.05155352 -0.05886855 -0.99693366],0,0,0.0,0.0,-0.0,[0 0 0 1],[-0.00856625  0.00243058 -0.03363343  0.99939457]
1717188553.144642,-2.0,-2.2533333333333334,38.17333333333334,-1.524390243902439,-0.06097560975609757,0.426829268292683,0.017595307917888565,0.017595307917888565,0.020527859237536656,0.02346041055718475,0.011730205278592375,0.017595307917888565,42.3,-83.7,0.3,[0 0 1],[-0.05223017 -0.05884599 -0.99689977],0,0,0.0,0.0,-0.0,[0 0 0 1],[-0.0092042   0.00146799 -0.0334285   0.99939765]
1717188553.171646,-2.0,-2.2666666666666666,38.160000000000004,-1.707317073170732,-0.06097560975609757,0.6707317073170732,0.017595307917888565,0.017595307917888565,0.020527859237536656,0.02346041055718475,0.011730205278592375,0.017595307917888565,42.3,-83.7,0.3,[0 0 1],[-0.05224723 -0.05921353 -0.99687712],0,0,0.0,0.0,-0.0,[0 0 0 1],[-0.01381002  0.00122106 -0.03660792  0.99923353]
1717188553.1986358,-1.9733333333333334,-2.24,38.21333333333334,-1.6463414634146343,0.0,0.3658536585365854,0.017595307917888565,0.01466275659824047,0.020527859237536656,0.02346041055718475,0.011730205278592375,0.017595307917888565,42.3,-83.7,0.3,[0 0 1],[-0.05148306 -0.05844023 -0.9969625 ],0,0,0.0,0.0,-0.0,[0 0 0 1],[-8.78476242e-03  3.49656709e-04 -3.60561629e-02  9.99311092e-01]
1717188553.2256176,-2.0533333333333337,-2.24,38.21333333333334,-1.7682926829268295,-0.30487804878048785,0.12195121951219513,0.017595307917888565,0.01466275659824047,0.020527859237536656,0.02346041055718475,0.011730205278592375,0.017595307917888565,42.3,-83.7,0.3,[0 0 1],[-0.05356434 -0.05843382 -0.99685322],0,0,0.0,0.0,-0.0,[0 0 0 1],[-0.00372296  0.00594806 -0.03809717  0.9992494 ]
1717188553.2527285,-2.0,-2.2666666666666666,38.2,-1.0975609756097562,-0.48780487804878053,-0.06097560975609757,0.017595307917888565,0.017595307917888565,0.020527859237536656,0.02346041055718475,0.011730205278592375,0.017595307917888565,42.3,-83.7,0.3,[0 0 1],[-0.05219286 -0.05915191 -0.99688362],0,0,0.0,0.0,-0.0,[0 0 0 1],[ 3.86584362e-04  1.01998010e-02 -2.62057515e-02  9.99604458e-01]
1717188553.2797432,-1.9866666666666668,-2.24,38.2,-1.7682926829268295,0.0,0.3658536585365854,0.017595307917888565,0.017595307917888565,0.020527859237536656,0.02346041055718475,0.011730205278592375,0.017595307917888565,42.3,-83.7,0.3,[0 0 1],[-0.05184797 -0.05845945 -0.99694247],0,0,0.0,0.0,-0.0,[0 0 0 1],[-0.00643487  0.00126249 -0.03680144  0.99930108]
