Time,MagX,MagY,MagZ,GyroX,GyroY,GyroZ,Tri11,Tri12,Tri13,Tri21,Tri22,Tri23,Lat,Lon,Alt,SunVect,MagVect,MagRef,SunRef,Roll,Pitch,Yaw,static_q,dynamic_q
1717188604.2822003,-1.8666666666666667,-2.24,38.013333333333335,-2.073170731707317,0.12195121951219513,0.7926829268292683,0.017595307917888565,0.01466275659824047,0.020527859237536656,0.02346041055718475,0.011730205278592375,0.017595307917888565,42.3,-83.7,0.3,[0 0 1],[-0.04896175 -0.0587541  -0.99707106],0,0,0.0,0.0,-0.0,[0 0 0 1],[-0.01507112 -0.00155192 -0.0428194   0.99896794]
1717188604.3077166,-1.8666666666666667,-2.226666666666667,37.973333333333336,-1.6463414634146343,0.0,0.12195121951219513,0.017595307917888565,0.01466275659824047,0.020527859237536656,0.02346041055718475,0.011730205278592375,0.017595307917888565,42.3,-83.7,0.3,[0 0 1],[-0.04901403 -0.05846673 -0.99708539],0,0,0.0,0.0,-0.0,[0 0 0 1],[-4.48994369e-03  1.45056642e-04 -3.69615610e-02  9.99306591e-01]
1717188604.3339562,-1.84,-2.2133333333333334,38.0,-1.3414634146341464,-0.1829268292682927,0.1829268292682927,0.017595307917888565,0.017595307917888565,0.020527859237536656,0.02346041055718475,0.011730205278592375,0.017595307917888565,42.3,-83.7,0.3,[0 0 1],[-0.04828275 -0.05807925 -0.99714371],0,0,0.0,0.0,-0.0,[0 0 0 1],[-0.00421766  0.00345412 -0.03058761  0.99951722]
1717188604.362984,-1.8666666666666667,-2.186666666666667,38.0,-1.4634146341463417,-0.24390243902439027,0.12195121951219513,0.017595307917888565,0.01466275659824047,0.020527859237536656,0.02346041055718475,0.011730205278592375,0.017595307917888565,42.3,-83.7,0.3,[0 0 1],[-0.04898281 -0.05737986 -0.99715006],0,0,0.0,0.0,-0.0,[0 0 0 1],[-0.00294364  0.00512718 -0.03189286  0.99947381]
1717188604.3880217,-1.8666666666666667,-2.24,38.0,-1.707317073170732,0.0,0.30487804878048785,0.017595307917888565,0.01466275659824047,0.020527859237536656,0.02346041055718475,0.011730205278592375,0.017595307917888565,42.3,-83.7,0.3,[0 0 1],[-0.04897883 -0.05877459 -0.99706902],0,0,0.0,0.0,-0.0,[0 0 0 1],[-5.95613999e-03  6.44573603e-04 -3.65016563e-02  9.99315635e-01]
1717188604.4149568,-1.84,-2.226666666666667,37.98666666666667,-1.8902439024390245,0.12195121951219513,0.6097560975609757,0.017595307917888565,0.017595307917888565,0.020527859237536656,0.02346041055718475,0.01466275659824047,0.017595307917888565,42.3,-83.7,0.3,[0 0 1],[-0.04829861 -0.05844832 -0.99712138],0,0,0.0,0.0,-0.0,[0 0 0 1],[-0.01206339 -0.00237758 -0.04030408  0.99911181]
1717188604.4419928,-1.8800000000000001,-2.226666666666667,38.0,-1.2804878048780488,-0.30487804878048785,-0.06097560975609757,0.017595307917888565,0.01466275659824047,0.020527859237536656,0.02346041055718475,0.01466275659824047,0.017595307917888565,42.3,-83.7,0.3,[0 0 1],[-0.04932884 -0.05842494 -0.99707231],0,0,0.0,0.0,-0.0,[0 0 0 1],[-8.78626109e-04  5.74488659e-03 -2.98925922e-02  9.99536221e-01]
1717188604.468992,-1.8533333333333335,-2.24,38.0,-1.9512195121951221,0.1829268292682927,0.7926829268292683,0.017595307917888565,0.017595307917888565,0.020527859237536656,0.02346041055718475,0.011730205278592375,0.017595307917888565,42.3,-83.7,0.3,[0 0 1],[-0.04862981 -0.0587756  -0.99708604],0,0,0.0,0.0,-0.0,[0 0 0 1],[-0.01448272 -0.00297939 -0.04041768  0.99907346]
1717188604.4959655,-1.8666666666666667,-2.2133333333333334,38.013333333333335,-1.707317073170732,0.1829268292682927,0.426829268292683,0.017595307917888565,0.017595307917888565,0.020527859237536656,0.02346041055718475,0.011730205278592375,0.017595307917888565,42.3,-83.7,0.3,[0 0 1],[-0.04896375 -0.05805702 -0.9971118 ],0,0,0.0,0.0,-0.0,[0 0 0 1],[-0.00999666 -0.00370219 -0.03768429  0.99923283]
1717188604.5229735,-1.8533333333333335,-2.2533333333333334,38.0,-2.1341463414634148,-0.06097560975609757,0.5487804878048781,0.017595307917888565,0.017595307917888565,0.020527859237536656,0.02346041055718475,0.011730205278592375,0.017595307917888565,42.3,-83.7,0.3,[0 0 1],[-0.04862881 -0.05912423 -0.99706548],0,0,0.0,0.0,-0.0,[0 0 0 1],[-1.17269565e-02  6.15178004e-04 -4.46553770e-02  9.98933430e-01]
1717188604.550155,-1.8133333333333335,-2.2133333333333334,37.98666666666667,-1.1585365853658538,-0.06097560975609757,-0.12195121951219513,0.017595307917888565,0.017595307917888565,0.020527859237536656,0.02346041055718475,0.011730205278592375,0.017595307917888565,42.3,-83.7,0.3,[0 0 1],[-0.0476012  -0.05810147 -0.99717518],0,0,0.0,0.0,-0.0,[0 0 0 1],[ 5.72457665e-04  1.60210520e-03 -2.83464840e-02  9.99596710e-01]
1717188604.577134,-1.8933333333333335,-2.226666666666667,38.013333333333335,-1.829268292682927,0.5487804878048781,0.6707317073170732,0.017595307917888565,0.017595307917888565,0.020527859237536656,0.02346041055718475,0.011730205278592375,0.017595307917888565,42.3,-83.7,0.3,[0 0 1],[-0.04966051 -0.05840356 -0.9970571 ],0,0,0.0,0.0,-0.0,[0 0 0 1],[-0.01201815 -0.01032531 -0.03796569  0.99915342]
1717188604.6041584,-1.8533333333333335,-2.24,37.98666666666667,-1.6463414634146343,-0.06097560975609757,0.3658536585365854,0.017595307917888565,0.01466275659824047,0.020527859237536656,0.02346041055718475,0.011730205278592375,0.017595307917888565,42.3,-83.7,0.3,[0 0 1],[-0.04864678 -0.05879611 -0.997084  ],0,0,0.0,0.0,-0.0,[0 0 0 1],[-8.92726132e-03 -2.25535004e-04 -3.61550195e-02  9.99306293e-01]
1717188604.6311224,-1.8533333333333335,-2.2,38.053333333333335,-1.707317073170732,0.06097560975609757,0.426829268292683,0.017595307917888565,0.01466275659824047,0.020527859237536656,0.02346041055718475,0.011730205278592375,0.017595307917888565,42.3,-83.7,0.3,[0 0 1],[-0.04856501 -0.05764911 -0.99715496],0,0,0.0,0.0,-0.0,[0 0 0 1],[-0.00921459 -0.00117489 -0.03706649  0.99926963]
1717188604.6582,-1.8800000000000001,-2.2533333333333334,38.0,-1.3414634146341464,-0.06097560975609757,0.426829268292683,0.017595307917888565,0.01466275659824047,0.020527859237536656,0.02346041055718475,0.011730205278592375,0.017595307917888565,42.3,-83.7,0.3,[0 0 1],[-0.04932681 -0.05912221 -0.99703131],0,0,0.0,0.0,-0.0,[0 0 0 1],[-9.43489893e-03  9.13800007e-04 -3.05719258e-02  9.99487621e-01]
1717188604.686021,-1.8266666666666669,-2.2133333333333334,38.013333333333335,-1.5853658536585367,0.24390243902439027,0.5487804878048781,0.017595307917888565,0.017595307917888565,0.020527859237536656,0.02346041055718475,0.011730205278592375,0.017595307917888565,42.3,-83.7,0.3,[0 0 1],[-0.04791696 -0.05805997 -0.99716248],0,0,0.0,0.0,-0.0,[0 0 0 1],[-0.01145084 -0.00446718 -0.03408838  0.99934324]
1717188604.7121463,-1.8666666666666667,-2.2133333333333334,38.02666666666667,-1.3414634146341464,-0.06097560975609757,0.1829268292682927,0.017595307917888565,0.01466275659824047,0.020527859237536656,0.02346041055718475,0.01466275659824047,0.017595307917888565,42.3,-83.7,0.3,[0 0 1],[-0.04894668 -0.05803678 -0.99711381],0,0,0.0,0.0,-0.0,[0 0 0 1],[-5.24959246e-03  6.77881526e-04 -3.01661323e-02  9.99530883e-01]
1717188604.738962,-1.8533333333333335,-2.2533333333333334,38.0,-1.5853658536585367,0.12195121951219513,0.3658536585365854,0.017595307917888565,0.017595307917888565,0.020527859237536656,0.02346041055718475,0.01466275659824047,0.017595307917888565,42.3,-83.7,0.3,[0 0 1],[-0.04862881 -0.05912423 -0.99706548],0,0,0.0,0.0,-0.0,[0 0 0 1],[-0.00751854 -0.00223913 -0.03404538  0.9993895 ]
1717188604.7718935,-1.8266666666666669,-2.226666666666667,38.0,-1.7682926829268295,-0.1829268292682927,0.48780487804878053,0.017595307917888565,0.01466275659824047,0.020527859237536656,0.02346041055718475,0.011730205278592375,0.017595307917888565,42.3,-83.7,0.3,[0 0 1],[-0.0479327  -0.05842892 -0.99714017],0,0,0.0,0.0,-0.0,[0 0 0 1],[-0.01035535  0.00302947 -0.03777074  0.99922818]
1717188604.7932818,-1.8666666666666667,-1.9066666666666667,37.98666666666667,-2.25609756097561,0.1829268292682927,0.6707317073170732,0.017595307917888565,0.017595307917888565,0.020527859237536656,0.02346041055718475,0.011730205278592375,0.017595307917888565,42.3,-83.7,0.3,[0 0 1],[-0.04901927 -0.05006968 -0.99754205],0,0,0.0,0.0,-0.0,[0 0 0 1],[-0.01352027 -0.00297069 -0.0468118   0.99880781]
1717188604.8288183,-1.8533333333333335,-2.226666666666667,38.0,-1.524390243902439,0.06097560975609757,0.6097560975609757,0.017595307917888565,0.017595307917888565,0.020527859237536656,0.02346041055718475,0.011730205278592375,0.017595307917888565,42.3,-83.7,0.3,[0 0 1],[-0.04863081 -0.05842694 -0.99710648],0,0,0.0,0.0,-0.0,[0 0 0 1],[-0.01338982 -0.00171649 -0.03524124  0.99928766]
1717188604.8583517,-1.76,-2.2,38.0,-1.9512195121951221,0.24390243902439027,0.426829268292683,0.017595307917888565,0.017595307917888565,0.020527859237536656,0.02346041055718475,0.01466275659824047,0.017595307917888565,42.3,-83.7,0.3,[0 0 1],[-0.04618901 -0.05773627 -0.9972628 ],0,0,0.0,0.0,-0.0,[0 0 0 1],[-0.00972339 -0.00456418 -0.04125849  0.99909077]
1717188604.884282,-1.6,-2.3466666666666667,37.61333333333334,-2.1341463414634148,0.06097560975609757,0.6097560975609757,0.017595307917888565,0.01466275659824047,0.020527859237536656,0.02346041055718475,0.011730205278592375,0.017595307917888565,42.3,-83.7,0.3,[0 0 1],[-0.04241735 -0.06221211 -0.99716118],0,0,0.0,0.0,-0.0,[0 0 0 1],[-0.01275293 -0.00184985 -0.04514704  0.99889723]
1717188604.910027,-2.0133333333333336,-2.3466666666666667,38.04,-1.5853658536585367,0.1829268292682927,0.30487804878048785,0.017595307917888565,0.017595307917888565,0.020527859237536656,0.02346041055718475,0.011730205278592375,0.017595307917888565,42.3,-83.7,0.3,[0 0 1],[-0.05275277 -0.06148667 -0.99671287],0,0,0.0,0.0,-0.0,[0 0 0 1],[-0.00744087 -0.00357204 -0.0362121   0.99931004]
1717188604.9283078,-1.8800000000000001,-1.8266666666666669,38.0,-1.707317073170732,0.0,0.48780487804878053,0.017595307917888565,0.017595307917888565,0.020527859237536656,0.02346041055718475,0.011730205278592375,0.017595307917888565,42.3,-83.7,0.3,[0 0 1],[-0.0493564  -0.04795621 -0.99762926],0,0,0.0,0.0,-0.0,[0 0 0 1],[-1.02857025e-02 -6.02545815e-04 -3.70199538e-02  9.99261409e-01]
1717188604.9552286,-1.84,-2.24,37.98666666666667,-1.5853658536585367,0.0,0.5487804878048781,0.017595307917888565,0.017595307917888565,0.020527859237536656,0.02346041055718475,0.011730205278592375,0.017595307917888565,42.3,-83.7,0.3,[0 0 1],[-0.04829762 -0.05879711 -0.99710092],0,0,0.0,0.0,-0.0,[0 0 0 1],[-1.17621793e-02 -1.61314581e-04 -3.49670146e-02  9.99319235e-01]
1717188604.9815674,-1.8533333333333335,-2.24,38.02666666666667,-1.9512195121951221,0.1829268292682927,0.6707317073170732,0.017595307917888565,0.017595307917888565,0.020527859237536656,0.02346041055718475,0.01466275659824047,0.017595307917888565,42.3,-83.7,0.3,[0 0 1],[-0.04859591 -0.05873462 -0.99709011],0,0,0.0,0.0,-0.0,[0 0 0 1],[-0.01398038 -0.00342148 -0.04114228  0.99904963]
1717188605.0087793,-1.8800000000000001,-2.226666666666667,37.98666666666667,-2.073170731707317,0.48780487804878053,0.7926829268292683,0.017595307917888565,0.017595307917888565,0.020527859237536656,0.02346041055718475,0.01466275659824047,0.017595307917888565,42.3,-83.7,0.3,[0 0 1],[-0.04934605 -0.05844533 -0.99707026],0,0,0.0,0.0,-0.0,[0 0 0 1],[-0.01632864 -0.00953289 -0.04405168  0.99885031]
1717188605.0360103,-1.84,-2.226666666666667,37.98666666666667,-1.0975609756097562,-0.1829268292682927,-0.24390243902439027,0.017595307917888565,0.017595307917888565,0.020527859237536656,0.02346041055718475,0.011730205278592375,0.017595307917888565,42.3,-83.7,0.3,[0 0 1],[-0.04829861 -0.05844832 -0.99712138],0,0,0.0,0.0,-0.0,[0 0 0 1],[ 0.00190081  0.00262386 -0.02711646  0.99962703]
1717188605.063215,-1.8800000000000001,-2.226666666666667,38.0,-1.8902439024390245,-0.12195121951219513,0.426829268292683,0.017595307917888565,0.017595307917888565,0.020527859237536656,0.02346041055718475,0.011730205278592375,0.017595307917888565,42.3,-83.7,0.3,[0 0 1],[-0.04932884 -0.05842494 -0.99707231],0,0,0.0,0.0,-0.0,[0 0 0 1],[-0.00763562  0.00235819 -0.0390245   0.9992063 ]
1717188605.0901954,-1.8666666666666667,-2.2133333333333334,38.013333333333335,-1.524390243902439,0.1829268292682927,0.48780487804878053,0.017595307917888565,0.017595307917888565,0.020527859237536656,0.02346041055718475,0.01466275659824047,0.017595307917888565,42.3,-83.7,0.3,[0 0 1],[-0.04896375 -0.05805702 -0.9971118 ],0,0,0.0,0.0,-0.0,[0 0 0 1],[-0.01003779 -0.00323022 -0.03421809  0.99935876]
1717188605.1171803,-1.8533333333333335,-2.24,38.0,-1.4634146341463417,0.0,0.30487804878048785,0.017595307917888565,0.01466275659824047,0.020527859237536656,0.02346041055718475,0.011730205278592375,0.017595307917888565,42.3,-83.7,0.3,[0 0 1],[-0.04862981 -0.0587756  -0.99708604],0,0,0.0,0.0,-0.0,[0 0 0 1],[-7.26123694e-03 -3.83950962e-04 -3.24028439e-02  9.99448439e-01]
1717188605.1441858,-1.8933333333333335,-2.2666666666666666,37.94666666666667,-1.2804878048780488,0.24390243902439027,0.0,0.017595307917888565,0.017595307917888565,0.020527859237536656,0.02346041055718475,0.011730205278592375,0.017595307917888565,42.3,-83.7,0.3,[0 0 1],[-0.04974415 -0.05955286 -0.99698494],0,0,0.0,0.0,-0.0,[0 0 0 1],[-9.07024133e-04 -4.48156403e-03 -2.88643830e-02  9.99572879e-01]
1717188605.1714284,-1.8266666666666669,-2.2,38.013333333333335,-1.2804878048780488,0.0,0.30487804878048785,0.017595307917888565,0.017595307917888565,0.020527859237536656,0.02346041055718475,0.011730205278592375,0.017595307917888565,42.3,-83.7,0.3,[0 0 1],[-0.04791793 -0.05771138 -0.99718267],0,0,0.0,0.0,-0.0,[0 0 0 1],[-5.99000370e-03 -7.90096024e-04 -2.82886475e-02  9.99581536e-01]
1717188605.1985245,-1.8800000000000001,-2.226666666666667,38.02666666666667,-1.6463414634146343,0.06097560975609757,0.6707317073170732,0.017595307917888565,0.017595307917888565,0.020527859237536656,0.02346041055718475,0.011730205278592375,0.017595307917888565,42.3,-83.7,0.3,[0 0 1],[-0.04929445 -0.05838421 -0.9970764 ],0,0,0.0,0.0,-0.0,[0 0 0 1],[-0.01337157 -0.00142159 -0.03477596  0.99930466]
1717188605.2254722,-1.84,-2.24,37.98666666666667,-2.0121951219512195,0.426829268292683,0.5487804878048781,0.017595307917888565,0.017595307917888565,0.020527859237536656,0.02346041055718475,0.011730205278592375,0.017595307917888565,42.3,-83.7,0.3,[0 0 1],[-0.04829762 -0.05879711 -0.99710092],0,0,0.0,0.0,-0.0,[0 0 0 1],[-0.01181949 -0.00795133 -0.04222759  0.99900646]
1717188605.2527132,-1.8266666666666669,-2.2,38.0,-1.3414634146341464,0.06097560975609757,0.30487804878048785,0.017595307917888565,0.017595307917888565,0.020527859237536656,0.02346041055718475,0.011730205278592375,0.017595307917888565,42.3,-83.7,0.3,[0 0 1],[-0.04793465 -0.05773151 -0.9971807 ],0,0,0.0,0.0,-0.0,[0 0 0 1],[-0.00759835 -0.00223768 -0.03132093  0.99947799]
1717188605.282634,-1.84,-2.24,37.98666666666667,-1.4634146341463417,0.12195121951219513,0.5487804878048781,0.017595307917888565,0.01466275659824047,0.020527859237536656,0.02346041055718475,0.011730205278592375,0.017595307917888565,42.3,-83.7,0.3,[0 0 1],[-0.04829762 -0.05879711 -0.99710092],0,0,0.0,0.0,-0.0,[0 0 0 1],[-0.01137815 -0.00272345 -0.03194926  0.99942101]
1717188605.3065083,-1.8266666666666669,-2.2533333333333334,37.98666666666667,-1.9512195121951221,0.0,0.5487804878048781,0.017595307917888565,0.017595307917888565,0.020527859237536656,0.02346041055718475,0.011730205278592375,0.017595307917888565,42.3,-83.7,0.3,[0 0 1],[-0.04794746 -0.05914686 -0.99709713],0,0,0.0,0.0,-0.0,[0 0 0 1],[-1.18924232e-02 -2.99461682e-04 -4.06997325e-02  9.99100602e-01]
1717188605.3346004,-1.8533333333333335,-2.226666666666667,38.013333333333335,-1.2804878048780488,0.0,-0.06097560975609757,0.017595307917888565,0.017595307917888565,0.020527859237536656,0.02346041055718475,0.011730205278592375,0.017595307917888565,42.3,-83.7,0.3,[0 0 1],[-0.04861385 -0.05840657 -0.9971085 ],0,0,0.0,0.0,-0.0,[0 0 0 1],[-5.72220650e-04  2.91317158e-04 -3.00374367e-02  9.99548568e-01]
1717188605.3626342,-1.8666666666666667,-2.2533333333333334,38.0,-1.9512195121951221,0.06097560975609757,0.7317073170731708,0.017595307917888565,0.017595307917888565,0.020527859237536656,0.02346041055718475,0.011730205278592375,0.017595307917888565,42.3,-83.7,0.3,[0 0 1],[-0.04897782 -0.05912322 -0.99704845],0,0,0.0,0.0,-0.0,[0 0 0 1],[-0.0135875  -0.00147456 -0.04039125  0.99909046]
1717188605.388896,-1.8133333333333335,-2.24,38.013333333333335,-1.707317073170732,0.12195121951219513,0.1829268292682927,0.017595307917888565,0.017595307917888565,0.020527859237536656,0.02346041055718475,0.011730205278592375,0.017595307917888565,42.3,-83.7,0.3,[0 0 1],[-0.04756605 -0.05875807 -0.99713839],0,0,0.0,0.0,-0.0,[0 0 0 1],[-0.00531763 -0.0021952  -0.03772383  0.99927164]
1717188605.4148333,-1.8800000000000001,-2.0133333333333336,38.013333333333335,-1.5853658536585367,0.24390243902439027,0.5487804878048781,0.017595307917888565,0.01466275659824047,0.020527859237536656,0.02346041055718475,0.011730205278592375,0.017595307917888565,42.3,-83.7,0.3,[0 0 1],[-0.04932699 -0.05282536 -0.99738475],0,0,0.0,0.0,-0.0,[0 0 0 1],[-0.01092154 -0.00510735 -0.03506032  0.99931247]
1717188605.4421866,-1.8533333333333335,-2.2800000000000002,37.98666666666667,-1.4634146341463417,-0.3658536585365854,0.1829268292682927,0.017595307917888565,0.017595307917888565,0.017595307917888565,0.02346041055718475,0.01466275659824047,0.017595307917888565,42.3,-83.7,0.3,[0 0 1],[-0.04864375 -0.05984231 -0.99702191],0,0,0.0,0.0,-0.0,[0 0 0 1],[-0.00538576  0.00631894 -0.03243018  0.99943952]
1717188605.4688864,-1.8533333333333335,-2.186666666666667,38.013333333333335,-1.707317073170732,0.0,0.426829268292683,0.017595307917888565,0.017595307917888565,0.020527859237536656,0.02346041055718475,0.011730205278592375,0.017595307917888565,42.3,-83.7,0.3,[0 0 1],[-0.0486168  -0.05736083 -0.99716906],0,0,0.0,0.0,-0.0,[0 0 0 1],[-8.54131657e-03  8.15284779e-04 -3.65766831e-02  9.99294015e-01]
1717188605.4958737,-1.9066666666666667,-2.226666666666667,37.98666666666667,-1.7682926829268295,-0.06097560975609757,0.426829268292683,0.017595307917888565,0.01466275659824047,0.020527859237536656,0.02346041055718475,0.011730205278592375,0.017595307917888565,42.3,-83.7,0.3,[0 0 1],[-0.05004426 -0.05844329 -0.99703558],0,0,0.0,0.0,-0.0,[0 0 0 1],[-0.00919465  0.0012442  -0.03819776  0.99922712]
1717188605.5228305,-1.84,-2.226666666666667,38.0,-1.2195121951219514,0.12195121951219513,0.24390243902439027,0.017595307917888565,0.01466275659824047,0.020527859237536656,0.02346041055718475,0.011730205278592375,0.017595307917888565,42.3,-83.7,0.3,[0 0 1],[-0.04828176 -0.05842793 -0.99712339],0,0,0.0,0.0,-0.0,[0 0 0 1],[-0.0058165  -0.00208756 -0.02857063  0.99957267]
1717188605.5498276,-1.8933333333333335,-2.106666666666667,38.04,-1.4634146341463417,0.0,0.24390243902439027,0.017595307917888565,0.017595307917888565,0.020527859237536656,0.02346041055718475,0.01466275659824047,0.017595307917888565,42.3,-83.7,0.3,[0 0 1],[-0.04963477 -0.05522742 -0.99723935],0,0,0.0,0.0,-0.0,[0 0 0 1],[-5.47861150e-03 -2.70861214e-04 -3.16082129e-02  9.99485284e-01]
1717188605.5770195,-1.8666666666666667,-2.08,38.013333333333335,-1.3414634146341464,0.12195121951219513,0.5487804878048781,0.017595307917888565,0.017595307917888565,0.020527859237536656,0.02346041055718475,0.011730205278592375,0.017595307917888565,42.3,-83.7,0.3,[0 0 1],[-0.0489734  -0.05457035 -0.99730822],0,0,0.0,0.0,-0.0,[0 0 0 1],[-0.01104536 -0.0025212  -0.0297888   0.99949201]
1717188605.6038268,-1.8666666666666667,-1.9733333333333334,38.02666666666667,-2.073170731707317,0.06097560975609757,0.6707317073170732,0.017595307917888565,0.01466275659824047,0.020527859237536656,0.02346041055718475,0.011730205278592375,0.017595307917888565,42.3,-83.7,0.3,[0 0 1],[-0.0489636  -0.05176152 -0.99745843],0,0,0.0,0.0,-0.0,[0 0 0 1],[-0.01400992 -0.00142808 -0.04247564  0.99899825]
1717188605.6309743,-1.8800000000000001,-1.9066666666666667,38.0,-1.1585365853658538,-0.1829268292682927,-0.06097560975609757,0.017595307917888565,0.01466275659824047,0.020527859237536656,0.02346041055718475,0.011730205278592375,0.017595307917888565,42.3,-83.7,0.3,[0 0 1],[-0.04935132 -0.05005133 -0.9975266 ],0,0,0.0,0.0,-0.0,[0 0 0 1],[-0.00105059  0.00360815 -0.02799581  0.99960098]
1717188605.658031,-1.7333333333333334,-1.84,38.013333333333335,-1.8902439024390245,0.30487804878048785,0.6707317073170732,0.017595307917888565,0.017595307917888565,0.020527859237536656,0.02346041055718475,0.011730205278592375,0.017595307917888565,42.3,-83.7,0.3,[0 0 1],[-0.04549755 -0.0482974  -0.99779624],0,0,0.0,0.0,-0.0,[0 0 0 1],[-0.01230513 -0.0054553  -0.03908007  0.99914542]
1717188605.6851466,-1.8800000000000001,-1.8133333333333335,38.0,-1.402439024390244,0.1829268292682927,0.3658536585365854,0.017595307917888565,0.01466275659824047,0.020527859237536656,0.02346041055718475,0.011730205278592375,0.017595307917888565,42.3,-83.7,0.3,[0 0 1],[-0.04935722 -0.04760696 -0.99764595],0,0,0.0,0.0,-0.0,[0 0 0 1],[-0.00865962 -0.00416912 -0.0320007   0.99944164]
1717188605.712267,-1.8533333333333335,-1.9733333333333334,38.013333333333335,-1.9512195121951221,0.3658536585365854,0.5487804878048781,0.017595307917888565,0.01466275659824047,0.020527859237536656,0.02346041055718475,0.011730205278592375,0.017595307917888565,42.3,-83.7,0.3,[0 0 1],[-0.04863165 -0.05178046 -0.99747368],0,0,0.0,0.0,-0.0,[0 0 0 1],[-0.01133158 -0.0073837  -0.04071348  0.99907932]
1717188605.7390144,-1.8666666666666667,-2.16,38.02666666666667,-1.4634146341463417,-0.48780487804878053,0.1829268292682927,0.017595307917888565,0.01466275659824047,0.020527859237536656,0.02346041055718475,0.011730205278592375,0.017595307917888565,42.3,-83.7,0.3,[0 0 1],[-0.04895061 -0.05664284 -0.99719378],0,0,0.0,0.0,-0.0,[0 0 0 1],[-0.00563517  0.0082675  -0.03317826  0.99939937]
1717188605.7660303,-1.8666666666666667,-2.0533333333333337,37.973333333333336,-2.0121951219512195,0.1829268292682927,0.853658536585366,0.017595307917888565,0.01466275659824047,0.020527859237536656,0.02346041055718475,0.01466275659824047,0.017595307917888565,42.3,-83.7,0.3,[0 0 1],[-0.04902657 -0.05392923 -0.99734048],0,0,0.0,0.0,-0.0,[0 0 0 1],[-0.01613452 -0.00252424 -0.04197621  0.99898514]
1717188605.7962048,-1.8133333333333335,-2.16,38.0,-1.524390243902439,0.426829268292683,0.30487804878048785,0.017595307917888565,0.017595307917888565,0.020527859237536656,0.02346041055718475,0.011730205278592375,0.017595307917888565,42.3,-83.7,0.3,[0 0 1],[-0.04758842 -0.0566862  -0.99725725],0,0,0.0,0.0,-0.0,[0 0 0 1],[-0.00776337 -0.00814141 -0.03470576  0.99933426]
1717188605.8201146,-2.2800000000000002,-1.9066666666666667,38.0,-2.073170731707317,0.24390243902439027,0.6707317073170732,0.017595307917888565,0.01466275659824047,0.020527859237536656,0.02346041055718475,0.011730205278592375,0.017595307917888565,42.3,-83.7,0.3,[0 0 1],[-0.05981731 -0.05002266 -0.99695518],0,0,0.0,0.0,-0.0,[0 0 0 1],[-0.01363429 -0.00578457 -0.04310723  0.99896067]
1717188605.8472002,-1.8800000000000001,-2.2933333333333334,38.0,-1.1585365853658538,-0.30487804878048785,-0.12195121951219513,0.017595307917888565,0.017595307917888565,0.020527859237536656,0.02346041055718475,0.011730205278592375,0.01466275659824047,42.3,-83.7,0.3,[0 0 1],[-0.04932372 -0.06016795 -0.9969689 ],0,0,0.0,0.0,-0.0,[0 0 0 1],[-4.07557226e-05  5.32319322e-03 -2.80526748e-02  9.99592272e-01]
1717188605.8741846,-1.7733333333333334,-2.2133333333333334,38.013333333333335,-1.829268292682927,0.24390243902439027,0.9146341463414634,0.017595307917888565,0.017595307917888565,0.020527859237536656,0.02346041055718475,0.01466275659824047,0.017595307917888565,42.3,-83.7,0.3,[0 0 1],[-0.046521   -0.0580638  -0.99722835],0,0,0.0,0.0,-0.0,[0 0 0 1],[-0.01664776 -0.00424038 -0.03796128  0.99913153]
1717188605.9012067,-1.8133333333333335,-2.2533333333333334,38.0,-1.524390243902439,-0.12195121951219513,0.06097560975609757,0.017595307917888565,0.017595307917888565,0.020527859237536656,0.02346041055718475,0.011730205278592375,0.017595307917888565,42.3,-83.7,0.3,[0 0 1],[-0.04758167 -0.05912722 -0.99711582],0,0,0.0,0.0,-0.0,[0 0 0 1],[-0.0037434   0.00211487 -0.03403283  0.99941147]
1717188605.9281464,-1.6533333333333335,-2.04,38.0,-1.0975609756097562,-0.1829268292682927,0.0,0.017595307917888565,0.017595307917888565,0.020527859237536656,0.02346041055718475,0.011730205278592375,0.017595307917888565,42.3,-83.7,0.3,[0 0 1],[-0.04340527 -0.0535565  -0.99762101],0,0,0.0,0.0,-0.0,[0 0 0 1],[-6.15473450e-04  3.84641284e-03 -2.56861936e-02  9.99662466e-01]
1717188605.9553664,-1.5866666666666667,-1.8933333333333335,37.98666666666667,-1.1585365853658538,-0.06097560975609757,0.06097560975609757,0.017595307917888565,0.01466275659824047,0.020527859237536656,0.02346041055718475,0.011730205278592375,0.017595307917888565,42.3,-83.7,0.3,[0 0 1],[-0.041681   -0.04973699 -0.99789224],0,0,0.0,0.0,-0.0,[0 0 0 1],[-0.00118765  0.00169312 -0.02563016  0.99966935]
1717188605.9823375,-1.4933333333333334,-1.9200000000000002,37.98666666666667,-1.524390243902439,0.30487804878048785,0.24390243902439027,0.017595307917888565,0.017595307917888565,0.020527859237536656,0.02346041055718475,0.011730205278592375,0.017595307917888565,42.3,-83.7,0.3,[0 0 1],[-0.03923169 -0.05044075 -0.99795621],0,0,0.0,0.0,-0.0,[0 0 0 1],[-0.00455166 -0.00556127 -0.03229211  0.99945264]
1717188606.0093145,-1.4000000000000001,-1.8800000000000001,38.013333333333335,-2.1341463414634148,0.06097560975609757,0.7926829268292683,0.017595307917888565,0.017595307917888565,0.020527859237536656,0.02346041055718475,0.011730205278592375,0.017595307917888565,42.3,-83.7,0.3,[0 0 1],[-0.03675936 -0.04936257 -0.99810425],0,0,0.0,0.0,-0.0,[0 0 0 1],[-0.01541936 -0.00219802 -0.04376618  0.99892038]
1717188606.0363402,-1.4666666666666668,-1.9600000000000002,38.013333333333335,-1.0975609756097562,-0.3658536585365854,0.06097560975609757,0.017595307917888565,0.017595307917888565,0.020527859237536656,0.02346041055718475,0.011730205278592375,0.017595307917888565,42.3,-83.7,0.3,[0 0 1],[-0.0385032  -0.05145427 -0.99793284],0,0,0.0,0.0,-0.0,[0 0 0 1],[-0.0037312   0.00687025 -0.02697315  0.99960559]
1717188606.0633204,-1.5466666666666669,-1.8533333333333335,38.013333333333335,-2.0121951219512195,0.3658536585365854,0.6097560975609757,0.017595307917888565,0.017595307917888565,0.020527859237536656,0.02346041055718475,0.011730205278592375,0.017595307917888565,42.3,-83.7,0.3,[0 0 1],[-0.04060569 -0.04865682 -0.99798983],0,0,0.0,0.0,-0.0,[0 0 0 1],[-0.01136461 -0.00596007 -0.04112374  0.99907165]
1717188606.0903335,-1.6266666666666667,-2.0133333333333336,38.053333333333335,-1.4634146341463417,0.24390243902439027,0.24390243902439027,0.017595307917888565,0.017595307917888565,0.020527859237536656,0.02346041055718475,0.01466275659824047,0.017595307917888565,42.3,-83.7,0.3,[0 0 1],[-0.04264848 -0.05278623 -0.9976947 ],0,0,0.0,0.0,-0.0,[0 0 0 1],[-0.0061911  -0.00531517 -0.0334312   0.99940771]
1717188606.1173677,-1.6666666666666667,-2.2533333333333334,38.013333333333335,-2.1341463414634148,0.12195121951219513,0.5487804878048781,0.017595307917888565,0.017595307917888565,0.020527859237536656,0.02346041055718475,0.011730205278592375,0.017595307917888565,42.3,-83.7,0.3,[0 0 1],[-0.04372558 -0.05911698 -0.99729296],0,0,0.0,0.0,-0.0,[0 0 0 1],[-0.01113479 -0.00309496 -0.04405958  0.99896206]
1717188606.144592,-1.7333333333333334,-2.48,37.94666666666667,-1.829268292682927,-0.24390243902439027,0.12195121951219513,0.017595307917888565,0.01466275659824047,0.020527859237536656,0.02346041055718475,0.01466275659824047,0.017595307917888565,42.3,-83.7,0.3,[0 0 1],[-0.04553363 -0.06514811 -0.9968362 ],0,0,0.0,0.0,-0.0,[0 0 0 1],[-0.00416581  0.00438465 -0.04031519  0.99916871]
1717188606.1714854,-1.8933333333333335,-2.4933333333333336,38.02666666666667,-1.829268292682927,0.1829268292682927,0.5487804878048781,0.017595307917888565,0.01466275659824047,0.020527859237536656,0.02346041055718475,0.011730205278592375,0.017595307917888565,42.3,-83.7,0.3,[0 0 1],[-0.04962173 -0.06534693 -0.99662805],0,0,0.0,0.0,-0.0,[0 0 0 1],[-0.01051608 -0.00304991 -0.03982697  0.9991466 ]
1717188606.198621,-1.9200000000000002,-2.506666666666667,38.02666666666667,-1.3414634146341464,0.1829268292682927,0.30487804878048785,0.017595307917888565,0.017595307917888565,0.020527859237536656,0.02346041055718475,0.011730205278592375,0.017595307917888565,42.3,-83.7,0.3,[0 0 1],[-0.05031772 -0.06569258 -0.99657042],0,0,0.0,0.0,-0.0,[0 0 0 1],[-0.00719652 -0.00384765 -0.03102055  0.99948543]
1717188606.226031,-1.9066666666666667,-2.6133333333333333,38.13333333333333,-1.8902439024390245,0.30487804878048785,0.7317073170731708,0.017595307917888565,0.017595307917888565,0.020527859237536656,0.02346041055718475,0.011730205278592375,0.017595307917888565,42.3,-83.7,0.3,[0 0 1],[-0.04982105 -0.0682862  -0.99642102],0,0,0.0,0.0,-0.0,[0 0 0 1],[-0.01454438 -0.00636603 -0.03942704  0.99909631]
1717188606.2525113,-1.5866666666666667,-2.3866666666666667,38.373333333333335,-1.2195121951219514,-0.12195121951219513,0.1829268292682927,0.017595307917888565,0.017595307917888565,0.020527859237536656,0.02346041055718475,0.011730205278592375,0.017595307917888565,42.3,-83.7,0.3,[0 0 1],[-0.04123332 -0.06202323 -0.99722261],0,0,0.0,0.0,-0.0,[0 0 0 1],[-0.00579239  0.00158305 -0.02866913  0.99957092]
1717188606.294303,-1.7200000000000002,-2.44,38.21333333333334,-1.2195121951219514,-0.24390243902439027,0.24390243902439027,0.017595307917888565,0.017595307917888565,0.020527859237536656,0.02346041055718475,0.011730205278592375,0.017595307917888565,42.3,-83.7,0.3,[0 0 1],[-0.04487374 -0.0636581  -0.99696238],0,0,0.0,0.0,-0.0,[0 0 0 1],[-0.00553625  0.00483472 -0.02714154  0.99960458]
1717188606.3278356,-1.9200000000000002,-2.2666666666666666,37.906666666666666,-1.2195121951219514,-0.06097560975609757,0.3658536585365854,0.017595307917888565,0.01466275659824047,0.020527859237536656,0.02346041055718475,0.011730205278592375,0.017595307917888565,42.3,-83.7,0.3,[0 0 1],[-0.05049591 -0.05961323 -0.99694354],0,0,0.0,0.0,-0.0,[0 0 0 1],[-0.00762507  0.00178845 -0.026964    0.99960572]
1717188606.3744838,-1.8666666666666667,-2.24,38.02666666666667,-1.0975609756097562,-0.24390243902439027,0.12195121951219513,0.017595307917888565,0.017595307917888565,0.020527859237536656,0.02346041055718475,0.01466275659824047,0.017595307917888565,42.3,-83.7,0.3,[0 0 1],[-0.04894468 -0.05873362 -0.99707311],0,0,0.0,0.0,-0.0,[0 0 0 1],[-0.0034978   0.00497056 -0.02463881  0.99967794]
1717188606.4324293,-1.8533333333333335,-2.2933333333333334,38.0,-1.4634146341463417,-0.06097560975609757,0.3658536585365854,0.017595307917888565,0.01466275659824047,0.020527859237536656,0.02346041055718475,0.011730205278592375,0.017595307917888565,42.3,-83.7,0.3,[0 0 1],[-0.04862576 -0.06017001 -0.99700306],0,0,0.0,0.0,-0.0,[0 0 0 1],[-0.00726814  0.00178611 -0.03106527  0.99948934]
1717188606.4731514,-1.8933333333333335,-2.226666666666667,38.0,-1.5853658536585367,-0.6097560975609757,-0.12195121951219513,0.017595307917888565,0.017595307917888565,0.020527859237536656,0.02346041055718475,0.011730205278592375,0.017595307917888565,42.3,-83.7,0.3,[0 0 1],[-0.04967783 -0.05842393 -0.99705504],0,0,0.0,0.0,-0.0,[0 0 0 1],[ 9.40801093e-04  1.19484925e-02 -3.40109360e-02  9.99349591e-01]
1717188606.4900422,-1.84,-2.2800000000000002,38.0,-1.7682926829268295,0.1829268292682927,0.48780487804878053,0.017595307917888565,0.017595307917888565,0.020527859237536656,0.02346041055718475,0.01466275659824047,0.017595307917888565,42.3,-83.7,0.3,[0 0 1],[-0.04827777 -0.05982245 -0.99704089],0,0,0.0,0.0,-0.0,[0 0 0 1],[-0.00844873 -0.00204811 -0.03791263  0.99924324]
1717188606.5071733,-1.8800000000000001,-2.106666666666667,38.0,-1.402439024390244,-0.24390243902439027,0.1829268292682927,0.017595307917888565,0.01466275659824047,0.020527859237536656,0.02346041055718475,0.011730205278592375,0.017595307917888565,42.3,-83.7,0.3,[0 0 1],[-0.04933767 -0.05528619 -0.99725084],0,0,0.0,0.0,-0.0,[0 0 0 1],[-0.00488579  0.0043877  -0.03179845  0.99947273]
1717188606.5230207,-1.8800000000000001,-2.1333333333333333,38.0,-1.5853658536585367,0.24390243902439027,0.5487804878048781,0.017595307917888565,0.01466275659824047,0.020527859237536656,0.02346041055718475,0.011730205278592375,0.017595307917888565,42.3,-83.7,0.3,[0 0 1],[-0.04933575 -0.05598383 -0.99721201],0,0,0.0,0.0,-0.0,[0 0 0 1],[-0.0106913  -0.00411792 -0.03427753  0.99934668]
1717188606.5499668,-2.106666666666667,-2.24,38.013333333333335,-1.3414634146341464,-0.426829268292683,0.30487804878048785,0.017595307917888565,0.017595307917888565,0.020527859237536656,0.02346041055718475,0.011730205278592375,0.017595307917888565,42.3,-83.7,0.3,[0 0 1],[-0.05523871 -0.05873484 -0.99674415],0,0,0.0,0.0,-0.0,[0 0 0 1],[-0.00765339  0.00751217 -0.03006015  0.99949056]
1717188606.579731,-2.146666666666667,-2.1333333333333333,38.06666666666667,-2.1951219512195124,0.1829268292682927,0.6707317073170732,0.017595307917888565,0.017595307917888565,0.020527859237536656,0.02346041055718475,0.011730205278592375,0.017595307917888565,42.3,-83.7,0.3,[0 0 1],[-0.05621491 -0.05586575 -0.9968545 ],0,0,0.0,0.0,-0.0,[0 0 0 1],[-0.01301209 -0.00237137 -0.04473305  0.99891142]
1717188606.6048286,-2.04,-2.2666666666666666,38.30666666666667,-1.4634146341463417,0.0,0.3658536585365854,0.017595307917888565,0.017595307917888565,0.020527859237536656,0.02346041055718475,0.011730205278592375,0.017595307917888565,42.3,-83.7,0.3,[0 0 1],[-0.05308649 -0.05898499 -0.99684632],0,0,0.0,0.0,-0.0,[0 0 0 1],[-8.80815804e-03 -2.90318868e-04 -3.39043602e-02  9.99386225e-01]
1717188606.6312256,-2.04,-2.1333333333333333,38.29333333333334,-1.4634146341463417,0.06097560975609757,0.3658536585365854,0.017595307917888565,0.01466275659824047,0.020527859237536656,0.02346041055718475,0.011730205278592375,0.017595307917888565,42.3,-83.7,0.3,[0 0 1],[-0.05311542 -0.05554553 -0.99704235],0,0,0.0,0.0,-0.0,[0 0 0 1],[-0.00810839 -0.00117829 -0.03237444  0.99944223]
1717188606.6580846,-2.0,-2.2,38.36,-1.3414634146341464,0.06097560975609757,0.0,0.017595307917888565,0.01466275659824047,0.020527859237536656,0.02346041055718475,0.011730205278592375,0.017595307917888565,42.3,-83.7,0.3,[0 0 1],[-0.05198174 -0.05717991 -0.99700971],0,0,0.0,0.0,-0.0,[0 0 0 1],[-0.00116081 -0.00111417 -0.02996463  0.99954966]
1717188606.6851335,-1.9200000000000002,-2.24,38.34666666666667,-1.8902439024390245,0.24390243902439027,0.853658536585366,0.017595307917888565,0.017595307917888565,0.020527859237536656,0.02346041055718475,0.011730205278592375,0.017595307917888565,42.3,-83.7,0.3,[0 0 1],[-0.04992201 -0.05824234 -0.99705347],0,0,0.0,0.0,-0.0,[0 0 0 1],[-0.01587545 -0.00510733 -0.03922997  0.99909103]
1717188606.7120976,-2.0933333333333333,-2.2933333333333334,38.36,-1.4634146341463417,0.12195121951219513,0.24390243902439027,0.017595307917888565,0.017595307917888565,0.020527859237536656,0.02346041055718475,0.011730205278592375,0.017595307917888565,42.3,-83.7,0.3,[0 0 1],[-0.05439283 -0.0595896  -0.99673994],0,0,0.0,0.0,-0.0,[0 0 0 1],[-0.00691632 -0.00276908 -0.03315718  0.99942238]
1717188606.7399476,-1.8,-2.4266666666666667,38.32,-1.2804878048780488,0.06097560975609757,0.06097560975609757,0.017595307917888565,0.017595307917888565,0.020527859237536656,0.02346041055718475,0.011730205278592375,0.017595307917888565,42.3,-83.7,0.3,[0 0 1],[-0.04682753 -0.06313045 -0.99690608],0,0,0.0,0.0,-0.0,[0 0 0 1],[-0.00217726 -0.00142121 -0.02895565  0.99957732]
1717188606.7661304,-2.0133333333333336,-2.3733333333333335,37.82666666666667,-1.4634146341463417,0.06097560975609757,0.30487804878048785,0.017595307917888565,0.01466275659824047,0.020527859237536656,0.02346041055718475,0.011730205278592375,0.017595307917888565,42.3,-83.7,0.3,[0 0 1],[-0.05304599 -0.06253104 -0.99663233],0,0,0.0,0.0,-0.0,[0 0 0 1],[-0.00604903 -0.00145628 -0.03165897  0.99947936]
1717188606.7932289,-2.04,-2.4266666666666667,38.46666666666667,-1.8902439024390245,0.426829268292683,0.7317073170731708,0.017595307917888565,0.01466275659824047,0.020527859237536656,0.02346041055718475,0.011730205278592375,0.017595307917888565,42.3,-83.7,0.3,[0 0 1],[-0.05285374 -0.06287176 -0.9966211 ],0,0,0.0,0.0,-0.0,[0 0 0 1],[-0.01421371 -0.00833174 -0.03953204  0.99908246]
1717188606.8238008,-1.7333333333333334,-2.4533333333333336,37.89333333333334,-1.4634146341463417,-0.30487804878048785,0.1829268292682927,0.017595307917888565,0.01466275659824047,0.020527859237536656,0.02346041055718475,0.011730205278592375,0.017595307917888565,42.3,-83.7,0.3,[0 0 1],[-0.04559939 -0.06454067 -0.99687271],0,0,0.0,0.0,-0.0,[0 0 0 1],[-0.0059343   0.00478655 -0.03306259  0.9994242 ]
1717188606.8472261,-2.026666666666667,-2.44,37.89333333333334,-1.6463414634146343,-0.06097560975609757,0.24390243902439027,0.017595307917888565,0.017595307917888565,0.020527859237536656,0.02346041055718475,0.011730205278592375,0.017595307917888565,42.3,-83.7,0.3,[0 0 1],[-0.05329707 -0.06416687 -0.99651494],0,0,0.0,0.0,-0.0,[0 0 0 1],[-0.00530632  0.00185866 -0.0355736   0.99935124]
1717188606.8749204,-1.7733333333333334,-2.506666666666667,37.78666666666667,-1.524390243902439,0.24390243902439027,0.5487804878048781,0.017595307917888565,0.017595307917888565,0.020527859237536656,0.02346041055718475,0.011730205278592375,0.017595307917888565,42.3,-83.7,0.3,[0 0 1],[-0.04677596 -0.0661194  -0.99671472],0,0,0.0,0.0,-0.0,[0 0 0 1],[-0.01082584 -0.00451789 -0.03369778  0.99936322]
1717188606.9014,-1.7866666666666668,-2.5333333333333337,37.82666666666667,-2.1951219512195124,0.426829268292683,0.6097560975609757,0.017595307917888565,0.017595307917888565,0.020527859237536656,0.02346041055718475,0.011730205278592375,0.017595307917888565,42.3,-83.7,0.3,[0 0 1],[-0.04707517 -0.06674838 -0.99665871],0,0,0.0,0.0,-0.0,[0 0 0 1],[-0.01265395 -0.00842596 -0.04514293  0.99886485]
1717188606.928279,-1.8800000000000001,-2.56,37.760000000000005,-1.1585365853658538,-0.06097560975609757,0.12195121951219513,0.017595307917888565,0.017595307917888565,0.020527859237536656,0.02346041055718475,0.01466275659824047,0.017595307917888565,42.3,-83.7,0.3,[0 0 1],[-0.04961293 -0.06755804 -0.99648104],0,0,0.0,0.0,-0.0,[0 0 0 1],[-4.37219138e-03  1.08010800e-04 -2.83979815e-02  9.99587128e-01]
1717188606.9553683,-1.6666666666666667,-2.48,37.98666666666667,-1.7682926829268295,0.12195121951219513,0.6097560975609757,0.017595307917888565,0.017595307917888565,0.020527859237536656,0.02346041055718475,0.011730205278592375,0.017595307917888565,42.3,-83.7,0.3,[0 0 1],[-0.04373994 -0.06508503 -0.99692064],0,0,0.0,0.0,-0.0,[0 0 0 1],[-0.01191256 -0.00243491 -0.03699235  0.99924158]
1717188606.9826283,-1.9066666666666667,-2.3200000000000003,37.92,-1.707317073170732,0.12195121951219513,0.3658536585365854,0.017595307917888565,0.01466275659824047,0.020527859237536656,0.02346041055718475,0.011730205278592375,0.017595307917888565,42.3,-83.7,0.3,[0 0 1],[-0.05012437 -0.06099049 -0.99687898],0,0,0.0,0.0,-0.0,[0 0 0 1],[-0.00853132 -0.00249935 -0.03719764  0.99926838]
1717188607.0093584,-1.7466666666666668,-2.3466666666666667,37.96,-1.2804878048780488,-0.06097560975609757,0.30487804878048785,0.017595307917888565,0.017595307917888565,0.020527859237536656,0.02346041055718475,0.01466275659824047,0.017595307917888565,42.3,-83.7,0.3,[0 0 1],[-0.04587732 -0.0616367  -0.99704372],0,0,0.0,0.0,-0.0,[0 0 0 1],[-7.08361707e-03  7.81915154e-04 -2.94904088e-02  9.99539657e-01]
1717188607.036396,-1.8,-2.3333333333333335,37.88,-1.2804878048780488,-0.30487804878048785,0.12195121951219513,0.017595307917888565,0.01466275659824047,0.020527859237536656,0.02346041055718475,0.011730205278592375,0.017595307917888565,42.3,-83.7,0.3,[0 0 1],[-0.04737533 -0.06141247 -0.99698751],0,0,0.0,0.0,-0.0,[0 0 0 1],[-0.00347181  0.00596632 -0.02836269  0.99957386]
1717188607.0634449,-1.9466666666666668,-2.2666666666666666,37.81333333333333,-2.0121951219512195,0.12195121951219513,0.48780487804878053,0.017595307917888565,0.01466275659824047,0.020527859237536656,0.02346041055718475,0.011730205278592375,0.017595307917888565,42.3,-83.7,0.3,[0 0 1],[-0.051321   -0.05975732 -0.99689278],0,0,0.0,0.0,-0.0,[0 0 0 1],[-0.00924173 -0.00154161 -0.04135379  0.99910063]
1717188607.0903983,-1.9466666666666668,-2.226666666666667,37.89333333333334,-1.8902439024390245,0.12195121951219513,0.5487804878048781,0.017595307917888565,0.017595307917888565,0.020527859237536656,0.02346041055718475,0.011730205278592375,0.017595307917888565,42.3,-83.7,0.3,[0 0 1],[-0.0512165  -0.05858326 -0.99696784],0,0,0.0,0.0,-0.0,[0 0 0 1],[-0.011469   -0.0025819  -0.04099826  0.99909006]
1717188607.117482,-2.0,-2.2666666666666666,37.88,-1.402439024390244,-0.30487804878048785,0.12195121951219513,0.017595307917888565,0.017595307917888565,0.020527859237536656,0.02346041055718475,0.011730205278592375,0.017595307917888565,42.3,-83.7,0.3,[0 0 1],[-0.05263099 -0.05964846 -0.996831  ],0,0,0.0,0.0,-0.0,[0 0 0 1],[-0.00424765  0.00557356 -0.03221147  0.99945651]
1717188607.1445668,-2.1333333333333333,-2.2533333333333334,37.93333333333334,-1.402439024390244,0.06097560975609757,0.12195121951219513,0.017595307917888565,0.017595307917888565,0.020527859237536656,0.02346041055718475,0.01466275659824047,0.017595307917888565,42.3,-83.7,0.3,[0 0 1],[-0.05605179 -0.05920471 -0.99667096],0,0,0.0,0.0,-0.0,[0 0 0 1],[-2.72315334e-03 -3.07914144e-04 -3.10591258e-02  9.99513792e-01]
1717188607.1722033,-2.16,-2.2533333333333334,37.98666666666667,-1.402439024390244,0.12195121951219513,0.24390243902439027,0.017595307917888565,0.01466275659824047,0.020527859237536656,0.02346041055718475,0.011730205278592375,0.017595307917888565,42.3,-83.7,0.3,[0 0 1],[-0.05667106 -0.05911981 -0.99664098],0,0,0.0,0.0,-0.0,[0 0 0 1],[-0.0049192  -0.00241039 -0.0308687   0.99950844]
1717188607.1985853,-2.12,-2.2533333333333334,37.98666666666667,-2.0121951219512195,0.12195121951219513,0.6707317073170732,0.017595307917888565,0.01466275659824047,0.020527859237536656,0.02346041055718475,0.011730205278592375,0.017595307917888565,42.3,-83.7,0.3,[0 0 1],[-0.05562487 -0.05912329 -0.99669971],0,0,0.0,0.0,-0.0,[0 0 0 1],[-0.01312356 -0.00279676 -0.04156907  0.99904553]
1717188607.225544,-2.0933333333333333,-2.2666666666666666,37.98666666666667,-1.5853658536585367,-0.3658536585365854,0.3658536585365854,0.017595307917888565,0.017595307917888565,0.020527859237536656,0.02346041055718475,0.011730205278592375,0.017595307917888565,42.3,-83.7,0.3,[0 0 1],[-0.05492617 -0.0594742  -0.99671758],0,0,0.0,0.0,-0.0,[0 0 0 1],[-0.00909578  0.00655396 -0.03552109  0.99930604]
1717188607.2533631,-1.9866666666666668,-2.2133333333333334,38.17333333333334,-1.707317073170732,-0.12195121951219513,0.7317073170731708,0.017595307917888565,0.01466275659824047,0.020527859237536656,0.02346041055718475,0.011730205278592375,0.017595307917888565,42.3,-83.7,0.3,[0 0 1],[-0.05188607 -0.05780595 -0.99697859],0,0,0.0,0.0,-0.0,[0 0 0 1],[-0.01480222  0.00301079 -0.0369419   0.99920325]
1717188607.279582,-2.1333333333333333,-2.24,38.160000000000004,-1.5853658536585367,0.30487804878048785,0.3658536585365854,0.017595307917888565,0.017595307917888565,0.020527859237536656,0.02346041055718475,0.01466275659824047,0.017595307917888565,42.3,-83.7,0.3,[0 0 1],[-0.05572218 -0.05850829 -0.99673056],0,0,0.0,0.0,-0.0,[0 0 0 1],[-0.00867    -0.00509215 -0.03508377  0.99933379]
1717188607.3068788,-2.066666666666667,-2.2,38.2,-2.1341463414634148,0.1829268292682927,0.853658536585366,0.017595307917888565,0.01466275659824047,0.020527859237536656,0.02346041055718475,0.011730205278592375,0.017595307917888565,42.3,-83.7,0.3,[0 0 1],[-0.05393311 -0.05741267 -0.99689267],0,0,0.0,0.0,-0.0,[0 0 0 1],[-0.01700712 -0.00429236 -0.04414766  0.99887102]
1717188607.3380814,-2.0,-2.2,38.18666666666667,-1.3414634146341464,0.1829268292682927,0.426829268292683,0.017595307917888565,0.01466275659824047,0.020527859237536656,0.02346041055718475,0.011730205278592375,0.017595307917888565,42.3,-83.7,0.3,[0 0 1],[-0.05221627 -0.0574379  -0.99698262],0,0,0.0,0.0,-0.0,[0 0 0 1],[-0.01043774 -0.00398597 -0.03162675  0.9994373 ]
1717188607.362748,-1.9733333333333334,-2.226666666666667,38.080000000000005,-1.6463414634146343,-0.1829268292682927,0.426829268292683,0.017595307917888565,0.017595307917888565,0.020527859237536656,0.02346041055718475,0.011730205278592375,0.017595307917888565,42.3,-83.7,0.3,[0 0 1],[-0.05166328 -0.05829573 -0.99696164],0,0,0.0,0.0,-0.0,[0 0 0 1],[-0.00970663  0.00292074 -0.03524694  0.99932723]
1717188607.388211,-1.9600000000000002,-2.2,37.96,-1.7682926829268295,0.12195121951219513,0.6097560975609757,0.017595307917888565,0.017595307917888565,0.020527859237536656,0.02346041055718475,0.011730205278592375,0.017595307917888565,42.3,-83.7,0.3,[0 0 1],[-0.05147846 -0.05778194 -0.99700111],0,0,0.0,0.0,-0.0,[0 0 0 1],[-0.01256404 -0.00193654 -0.03801303  0.99919638]
1717188607.4149213,-1.9066666666666667,-2.2533333333333334,38.02666666666667,-1.2804878048780488,-0.24390243902439027,0.30487804878048785,0.017595307917888565,0.01466275659824047,0.020527859237536656,0.02346041055718475,0.011730205278592375,0.017595307917888565,42.3,-83.7,0.3,[0 0 1],[-0.04998987 -0.05907894 -0.99700085],0,0,0.0,0.0,-0.0,[0 0 0 1],[-0.00778031  0.00440417 -0.0295506   0.9995233 ]
1717188607.4419289,-1.8666666666666667,-2.2533333333333334,38.013333333333335,-1.8902439024390245,-0.24390243902439027,0.7317073170731708,0.017595307917888565,0.017595307917888565,0.020527859237536656,0.02346041055718475,0.011730205278592375,0.017595307917888565,42.3,-83.7,0.3,[0 0 1],[-0.04896074 -0.05910261 -0.99705051],0,0,0.0,0.0,-0.0,[0 0 0 1],[-0.0146502   0.00501859 -0.03926374  0.99910887]
1717188607.4689262,-1.9066666666666667,-2.2133333333333334,37.82666666666667,-1.5853658536585367,0.0,0.426829268292683,0.017595307917888565,0.017595307917888565,0.020527859237536656,0.02346041055718475,0.011730205278592375,0.017595307917888565,42.3,-83.7,0.3,[0 0 1],[-0.05025571 -0.05833879 -0.99703107],0,0,0.0,0.0,-0.0,[0 0 0 1],[-9.94502403e-03  8.39978359e-04 -3.53631034e-02  9.99324693e-01]
1717188607.4961116,-1.8666666666666667,-2.2933333333333334,37.70666666666667,-1.5853658536585367,0.0,0.24390243902439027,0.017595307917888565,0.017595307917888565,0.020527859237536656,0.02346041055718475,0.011730205278592375,0.017595307917888565,42.3,-83.7,0.3,[0 0 1],[-0.04935342 -0.06063421 -0.99693918],0,0,0.0,0.0,-0.0,[0 0 0 1],[-5.97363463e-03  2.54375522e-04 -3.47987984e-02  9.99376453e-01]
1717188607.5229158,-1.8800000000000001,-2.2133333333333334,37.85333333333334,-1.2195121951219514,-0.426829268292683,-0.06097560975609757,0.017595307917888565,0.01466275659824047,0.020527859237536656,0.02346041055718475,0.01466275659824047,0.017595307917888565,42.3,-83.7,0.3,[0 0 1],[-0.04951986 -0.05829998 -0.99707016],0,0,0.0,0.0,-0.0,[0 0 0 1],[ 1.45315425e-05  8.26842095e-03 -2.79817282e-02  9.99574237e-01]
1717188607.54993,-1.9066666666666667,-2.2133333333333334,37.74666666666667,-1.707317073170732,-0.12195121951219513,0.24390243902439027,0.017595307917888565,0.01466275659824047,0.020527859237536656,0.02346041055718475,0.01466275659824047,0.017595307917888565,42.3,-83.7,0.3,[0 0 1],[-0.05036159 -0.0584617  -0.99701853],0,0,0.0,0.0,-0.0,[0 0 0 1],[-0.00435772  0.00333309 -0.03595521  0.99933834]
1717188607.5770829,-1.8533333333333335,-2.2666666666666666,37.78666666666667,-1.2195121951219514,-0.1829268292682927,0.06097560975609757,0.017595307917888565,0.01466275659824047,0.020527859237536656,0.02346041055718475,0.011730205278592375,0.017595307917888565,42.3,-83.7,0.3,[0 0 1],[-0.0489007  -0.05980662 -0.99701148],0,0,0.0,0.0,-0.0,[0 0 0 1],[-0.00182849  0.00399578 -0.02821683  0.99959217]
1717188607.6039875,-1.9066666666666667,-2.2,37.74666666666667,-1.402439024390244,0.24390243902439027,0.426829268292683,0.017595307917888565,0.01466275659824047,0.020527859237536656,0.02346041055718475,0.011730205278592375,0.017595307917888565,42.3,-83.7,0.3,[0 0 1],[-0.05036262 -0.05811071 -0.99703899],0,0,0.0,0.0,-0.0,[0 0 0 1],[-0.00805178 -0.00418944 -0.03045795  0.99949484]
1717188607.6310103,-1.9066666666666667,-2.226666666666667,37.733333333333334,-1.1585365853658538,0.06097560975609757,-0.12195121951219513,0.017595307917888565,0.01466275659824047,0.020527859237536656,0.02346041055718475,0.01466275659824047,0.017595307917888565,42.3,-83.7,0.3,[0 0 1],[-0.05037823 -0.05883332 -0.99699582],0,0,0.0,0.0,-0.0,[0 0 0 1],[ 0.00108605 -0.00151187 -0.02633165  0.99965153]
1717188607.658009,-1.8800000000000001,-2.24,37.800000000000004,-1.829268292682927,-0.12195121951219513,0.1829268292682927,0.017595307917888565,0.017595307917888565,0.020527859237536656,0.02346041055718475,0.01466275659824047,0.017595307917888565,42.3,-83.7,0.3,[0 0 1],[-0.04958727 -0.05908271 -0.99702073],0,0,0.0,0.0,-0.0,[0 0 0 1],[-0.00336707  0.00193131 -0.03785106  0.99927585]
1717188607.6858819,-1.9200000000000002,-2.24,37.94666666666667,-0.6097560975609757,-0.5487804878048781,-0.426829268292683,0.017595307917888565,0.017595307917888565,0.020527859237536656,0.02346041055718475,0.011730205278592375,0.017595307917888565,42.3,-83.7,0.3,[0 0 1],[-0.0504451  -0.05885261 -0.9969913 ],0,0,0.0,0.0,-0.0,[0 0 0 1],[ 0.00723902  0.01103949 -0.01700975  0.99976817]
1717188607.7120786,-1.8800000000000001,-2.2933333333333334,37.94666666666667,-0.9146341463414634,-0.3658536585365854,0.0,0.017595307917888565,0.01466275659824047,0.020527859237536656,0.02346041055718475,0.011730205278592375,0.017595307917888565,42.3,-83.7,0.3,[0 0 1],[-0.04939263 -0.060252   -0.99696041],0,0,0.0,0.0,-0.0,[0 0 0 1],[ 0.00112241  0.00841311 -0.01986273  0.99976669]
1717188607.7396157,-1.9200000000000002,-2.3066666666666666,37.98666666666667,-1.524390243902439,0.0,0.426829268292683,0.017595307917888565,0.017595307917888565,0.020527859237536656,0.02346041055718475,0.011730205278592375,0.017595307917888565,42.3,-83.7,0.3,[0 0 1],[-0.05038704 -0.06053443 -0.99689354],0,0,0.0,0.0,-0.0,[0 0 0 1],[-0.00760522  0.00101448 -0.03150921  0.99947401]
1717188607.7659228,-1.9200000000000002,-2.2666666666666666,37.973333333333336,-2.25609756097561,0.6707317073170732,0.9756097560975611,0.017595307917888565,0.01466275659824047,0.020527859237536656,0.02346041055718475,0.011730205278592375,0.017595307917888565,42.3,-83.7,0.3,[0 0 1],[-0.0504078  -0.05950921 -0.99695422],0,0,0.0,0.0,-0.0,[0 0 0 1],[-0.01843945 -0.01234847 -0.04568336  0.99870943]
1717188607.793256,-1.9200000000000002,-2.3200000000000003,38.10666666666667,-1.0975609756097562,-0.6097560975609757,-0.24390243902439027,0.017595307917888565,0.01466275659824047,0.020527859237536656,0.02346041055718475,0.011730205278592375,0.017595307917888565,42.3,-83.7,0.3,[0 0 1],[-0.05022829 -0.06069251 -0.99689194],0,0,0.0,0.0,-0.0,[0 0 0 1],[ 0.00115858  0.01031291 -0.02713724  0.99957785]
1717188607.823357,-1.9733333333333334,-2.3466666666666667,38.093333333333334,-1.4634146341463417,-0.24390243902439027,0.12195121951219513,0.017595307917888565,0.017595307917888565,0.020527859237536656,0.02346041055718475,0.011730205278592375,0.017595307917888565,42.3,-83.7,0.3,[0 0 1],[-0.0516356  -0.0614045  -0.99677643],0,0,0.0,0.0,-0.0,[0 0 0 1],[-0.00196674  0.00597222 -0.031437    0.99948596]
1717188607.847423,-1.9466666666666668,-2.3466666666666667,38.13333333333333,-1.2195121951219514,-0.30487804878048785,0.24390243902439027,0.017595307917888565,0.01466275659824047,0.020527859237536656,0.02346041055718475,0.011730205278592375,0.017595307917888565,42.3,-83.7,0.3,[0 0 1],[-0.05088655 -0.06134269 -0.99681876],0,0,0.0,0.0,-0.0,[0 0 0 1],[-0.00493095  0.00651669 -0.02756974  0.99958648]
1717188607.874374,-1.9866666666666668,-2.3733333333333335,38.160000000000004,-2.0121951219512195,0.5487804878048781,0.7317073170731708,0.017595307917888565,0.01466275659824047,0.020527859237536656,0.02346041055718475,0.011730205278592375,0.017595307917888565,42.3,-83.7,0.3,[0 0 1],[-0.05189109 -0.0619907  -0.99672688],0,0,0.0,0.0,-0.0,[0 0 0 1],[-0.01367359 -0.00939534 -0.04114881  0.99901528]
1717188607.9019692,-2.0,-2.3600000000000003,38.120000000000005,-1.5853658536585367,-0.1829268292682927,0.1829268292682927,0.017595307917888565,0.017595307917888565,0.020527859237536656,0.02346041055718475,0.011730205278592375,0.017595307917888565,42.3,-83.7,0.3,[0 0 1],[-0.05229399 -0.06170691 -0.99672343],0,0,0.0,0.0,-0.0,[0 0 0 1],[-0.00580989  0.00234828 -0.03553948  0.99934863]
1717188607.9282389,-1.9866666666666668,-2.3466666666666667,38.17333333333334,-1.524390243902439,-0.12195121951219513,0.24390243902439027,0.017595307917888565,0.017595307917888565,0.020527859237536656,0.02346041055718475,0.011730205278592375,0.017595307917888565,42.3,-83.7,0.3,[0 0 1],[-0.05187531 -0.06127554 -0.99677192],0,0,0.0,0.0,-0.0,[0 0 0 1],[-0.00542687  0.00263002 -0.03371601  0.99941326]
1717188607.9553187,-2.04,-2.3200000000000003,38.18666666666667,-1.5853658536585367,-0.1829268292682927,0.30487804878048785,0.017595307917888565,0.017595307917888565,0.020527859237536656,0.02346041055718475,0.011730205278592375,0.017595307917888565,42.3,-83.7,0.3,[0 0 1],[-0.05324782 -0.06055634 -0.9967435 ],0,0,0.0,0.0,-0.0,[0 0 0 1],[-0.00652894  0.00377378 -0.03453931  0.99937489]
1717188607.9827924,-2.026666666666667,-2.3466666666666667,38.2,-2.25609756097561,-0.06097560975609757,0.6097560975609757,0.017595307917888565,0.01466275659824047,0.020527859237536656,0.02346041055718475,0.01466275659824047,0.017595307917888565,42.3,-83.7,0.3,[0 0 1],[-0.05288019 -0.06122969 -0.99672193],0,0,0.0,0.0,-0.0,[0 0 0 1],[-0.01200657  0.0015344  -0.04635373  0.99885175]
1717188608.0093925,-2.0,-2.3200000000000003,38.18666666666667,-1.524390243902439,-0.24390243902439027,-0.06097560975609757,0.017595307917888565,0.017595307917888565,0.020527859237536656,0.02346041055718475,0.011730205278592375,0.017595307917888565,42.3,-83.7,0.3,[0 0 1],[-0.05220662 -0.06055968 -0.99679837],0,0,0.0,0.0,-0.0,[0 0 0 1],[-7.47304749e-04  5.19583697e-03 -3.52124194e-02  9.99366064e-01]
1717188608.0364196,-2.066666666666667,-2.3333333333333335,38.22666666666667,-1.8902439024390245,-0.1829268292682927,0.5487804878048781,0.017595307917888565,0.017595307917888565,0.020527859237536656,0.02346041055718475,0.011730205278592375,0.017595307917888565,42.3,-83.7,0.3,[0 0 1],[-0.05388465 -0.0608375  -0.99669215],0,0,0.0,0.0,-0.0,[0 0 0 1],[-0.01023776  0.00380289 -0.04016405  0.99913341]
1717188608.0636234,-2.0133333333333336,-2.3200000000000003,38.22666666666667,-1.5853658536585367,-0.12195121951219513,0.12195121951219513,0.017595307917888565,0.01466275659824047,0.020527859237536656,0.02346041055718475,0.011730205278592375,0.017595307917888565,42.3,-83.7,0.3,[0 0 1],[-0.05249907 -0.06049561 -0.9967869 ],0,0,0.0,0.0,-0.0,[0 0 0 1],[-0.00373352  0.00304495 -0.03547495  0.99935895]
1717188608.0903862,-2.04,-2.3066666666666666,38.22666666666667,-2.073170731707317,0.48780487804878053,0.5487804878048781,0.017595307917888565,0.01466275659824047,0.020527859237536656,0.02346041055718475,0.011730205278592375,0.017595307917888565,42.3,-83.7,0.3,[0 0 1],[-0.05319358 -0.06014699 -0.99677118],0,0,0.0,0.0,-0.0,[0 0 0 1],[-0.01021964 -0.00879078 -0.04333456  0.99896967]
1717188608.117476,-2.04,-2.3200000000000003,38.18666666666667,-1.6463414634146343,-0.24390243902439027,0.30487804878048785,0.017595307917888565,0.01466275659824047,0.020527859237536656,0.02346041055718475,0.011730205278592375,0.017595307917888565,42.3,-83.7,0.3,[0 0 1],[-0.05324782 -0.06055634 -0.9967435 ],0,0,0.0,0.0,-0.0,[0 0 0 1],[-0.00763526  0.0033736  -0.03690543  0.9992839 ]
1717188608.1445818,-2.0,-2.3200000000000003,38.21333333333334,-1.402439024390244,0.1829268292682927,0.06097560975609757,0.017595307917888565,0.017595307917888565,0.020527859237536656,0.02346041055718475,0.011730205278592375,0.017595307917888565,42.3,-83.7,0.3,[0 0 1],[-0.05217042 -0.06051769 -0.99680282],0,0,0.0,0.0,-0.0,[0 0 0 1],[-0.0020302  -0.00279894 -0.03174207  0.99949011]
1717188608.171593,-2.0533333333333337,-2.2800000000000002,38.24,-2.073170731707317,0.3658536585365854,0.6097560975609757,0.017595307917888565,0.01466275659824047,0.020527859237536656,0.02346041055718475,0.011730205278592375,0.017595307917888565,42.3,-83.7,0.3,[0 0 1],[-0.05352393 -0.05943242 -0.99679636],0,0,0.0,0.0,-0.0,[0 0 0 1],[-0.01143659 -0.00742914 -0.04273588  0.99899332]
1717188608.19858,-2.0133333333333336,-2.3066666666666666,38.25333333333334,-1.402439024390244,-0.06097560975609757,0.48780487804878053,0.017595307917888565,0.01466275659824047,0.020527859237536656,0.02346041055718475,0.011730205278592375,0.017595307917888565,42.3,-83.7,0.3,[0 0 1],[-0.0524638  -0.06010753 -0.99681224],0,0,0.0,0.0,-0.0,[0 0 0 1],[-1.10578346e-02 -1.19529466e-05 -3.24217486e-02  9.99413105e-01]
1717188608.2255733,-2.0133333333333336,-2.24,38.21333333333334,-2.1341463414634148,-0.1829268292682927,0.5487804878048781,0.017595307917888565,0.01466275659824047,0.020527859237536656,0.02346041055718475,0.01466275659824047,0.017595307917888565,42.3,-83.7,0.3,[0 0 1],[-0.05252379 -0.05843706 -0.9969084 ],0,0,0.0,0.0,-0.0,[0 0 0 1],[-0.01179547  0.00348091 -0.04391407  0.99895961]
1717188608.2534657,-2.04,-2.3200000000000003,38.21333333333334,-1.7682926829268295,-0.1829268292682927,0.30487804878048785,0.017595307917888565,0.017595307917888565,0.020527859237536656,0.02346041055718475,0.011730205278592375,0.017595307917888565,42.3,-83.7,0.3,[0 0 1],[-0.0532109  -0.06051436 -0.99674802],0,0,0.0,0.0,-0.0,[0 0 0 1],[-0.0074072   0.00404969 -0.03924236  0.99919406]
1717188608.279929,-1.9866666666666668,-2.2800000000000002,38.24,-1.3414634146341464,-0.06097560975609757,0.12195121951219513,0.017595307917888565,0.01466275659824047,0.020527859237536656,0.02346041055718475,0.011730205278592375,0.017595307917888565,42.3,-83.7,0.3,[0 0 1],[-0.05179088 -0.05943786 -0.99688758],0,0,0.0,0.0,-0.0,[0 0 0 1],[-0.00330876  0.00183009 -0.03094206  0.99951403]
1717188608.3067644,-2.04,-2.3066666666666666,38.22666666666667,-2.25609756097561,0.0,0.426829268292683,0.017595307917888565,0.017595307917888565,0.020527859237536656,0.02346041055718475,0.011730205278592375,0.017595307917888565,42.3,-83.7,0.3,[0 0 1],[-0.05319358 -0.06014699 -0.99677118],0,0,0.0,0.0,-0.0,[0 0 0 1],[-8.24449430e-03  1.51639733e-04 -4.58861484e-02  9.98912642e-01]
1717188608.3408542,-2.0,-2.3066666666666666,38.24,-1.402439024390244,0.0,0.0,0.017595307917888565,0.017595307917888565,0.020527859237536656,0.02346041055718475,0.011730205278592375,0.017595307917888565,42.3,-83.7,0.3,[0 0 1],[-0.05213536 -0.06012945 -0.99682815],0,0,0.0,0.0,-0.0,[0 0 0 1],[-1.18288992e-03  2.39768449e-04 -3.30115126e-02  9.99454243e-01]
1717188608.3629243,-2.0,-2.2933333333333334,38.25333333333334,-2.25609756097561,0.12195121951219513,0.6097560975609757,0.017595307917888565,0.01466275659824047,0.020527859237536656,0.02346041055718475,0.011730205278592375,0.017595307917888565,42.3,-83.7,0.3,[0 0 1],[-0.05211839 -0.05976242 -0.99685111],0,0,0.0,0.0,-0.0,[0 0 0 1],[-0.01128814 -0.00252858 -0.04610369  0.99886968]
1717188608.3945768,-2.04,-2.3066666666666666,38.24,-1.2195121951219514,0.06097560975609757,0.0,0.017595307917888565,0.017595307917888565,0.020527859237536656,0.02346041055718475,0.011730205278592375,0.017595307917888565,42.3,-83.7,0.3,[0 0 1],[-0.05317515 -0.06012615 -0.99677342],0,0,0.0,0.0,-0.0,[0 0 0 1],[-0.00163568 -0.00125678 -0.02971006  0.99955643]
1717188608.415104,-1.9866666666666668,-2.3200000000000003,38.24,-1.707317073170732,0.06097560975609757,0.48780487804878053,0.017595307917888565,0.01466275659824047,0.020527859237536656,0.02346041055718475,0.011730205278592375,0.017595307917888565,42.3,-83.7,0.3,[0 0 1],[-0.05178764 -0.06047685 -0.99682526],0,0,0.0,0.0,-0.0,[0 0 0 1],[-0.00934903 -0.00153659 -0.03611267  0.99930281]
1717188608.4419556,-2.0133333333333336,-2.2800000000000002,38.24,-1.4634146341463417,-0.12195121951219513,0.12195121951219513,0.017595307917888565,0.017595307917888565,0.020527859237536656,0.02346041055718475,0.011730205278592375,0.017595307917888565,42.3,-83.7,0.3,[0 0 1],[-0.05248416 -0.0594357  -0.99685145],0,0,0.0,0.0,-0.0,[0 0 0 1],[-0.00376193  0.00224686 -0.03268256  0.99945618]
